"Name","Type","Latitude","Longitude","Address"
"DCP Bangalore North Traffic Police","police","13.0181973","77.5581675",""
"Jayanagar 4th Block Police Station","police","12.9285653","77.5813657",""
"Cubbon Park Police Station","police","12.9762399","77.5983458",""
"Maleshwaram Police station","police","12.9966811","77.5696708",""
"Jalahalli Police Station","police","13.0486481","77.5495673",""
"Police Headquarters","police","12.9695368","77.5877623",""
"Tilaknagar Police Station","police","12.928367","77.5905691","Tilak Nagar Main Road"
"Indira Nagar Police Station","police","12.983019","77.6384106",""
"Jeevan Bhima Nagar Police Station","police","12.9677712","77.6556937",""
"Mico Layout Police Station","police","12.9086369","77.6105652",""
"Girinagar Police Station","police","12.935917","77.5439681",""
"Sanjayanagar Police station","police","13.0335598","77.5758979",""
"Seshadripuram Police Station","police","12.9881279","77.5744324",""
"Rajaji Nagar Police Station","police","12.9945063","77.554298",""
"Hebbal Police Station","police","13.0386192","77.5896244",""
"Vyali Kaval Police Station","police","13.0015732","77.578628",""
"Police Station","police","12.9363435","77.5615008",""
"Commercial Street Police Station","police","12.9825702","77.6070982","Commercial Street, Bangalore"
"Vijaynagar Traffic Police Station","police","12.9733449","77.5414869",""
"Kadugodi Police Station","police","12.995384","77.7574684",""
"Indiranagar Traffic Police Station","police","12.967409","77.6559012",""
"Vijayanagar Police Station","police","12.9707264","77.5377251",""
"Chamarajapet Police Station","police","12.9604765","77.5643202",""
"Shankarapuram Police Station","police","12.9538729","77.570101","Shankar Matt Road"
"Peenya Police Station","police","13.0360107","77.5211853",""
"Cottenpet Police Station","police","12.9680925","77.5700945",""
"Women's Police Station","police","12.9292268","77.5678506",""
"Thyagaraja Nagar Police Station","police","12.929436","77.5678479",""
"BSK 3rd stage Police Station","police","12.9235553","77.5533335",""
"Magadi Road Police Station","police","12.9744861","77.5512501",""
"Krishna Rajendra Market Police Station","police","12.9649402","77.5761878","Sultan Road"
"Hulimavu Police Station","police","12.87667","77.6000418",""
"Chikkapete Police Station","police","12.9707012","77.5736393",""
"Nandini Layout Police Station","police","13.0124684","77.5368288",""
"Banashankari Police Station","police","12.9229116","77.5650055",""
"Kodigehalli Police Station","police","13.0621975","77.5741087",""
"Hennur Police Station","police","13.0237703","77.6457711","Outer Ring Road, Babusabpalya, Hennur"
"Sampangi Rama Nagar Police Station","police","12.9632542","77.5920638","Mission Road (Kalinga Rao Road), Bangalore, 560027"
"Indiranagar Traffic Police Station","police","12.978243","77.6404269",""
"Karnataka State Reserve Police","police","12.9691307","77.6168652",""
"Vidhana Soudha Police Station","police","12.9773726","77.5884362",""
"Traffic Police Cabin","police","12.9568555","77.7011085",""
"J J R Nagar Police station","police","12.9643591","77.5551587","Hosahalli Main Road"
"Avenue Road Police Chowky","police","12.9680176","77.5787039",""
"Hulimavu Traffic Police Station","police","12.8565752","77.5889783","Gottigere Tank Bund Road, Banglore, 560001"
"Chennamanakere Achukattu Police Station","police","12.9301326","77.5606044","8th Cross Rd, Vidyapeeta Layout, Banashankari 3rd Stage, Bengaluru, 560085"
"Bellanduru Traffic Police Station","police","12.9217846","77.6616311","IBBLUR SAMUDAYA BAVANA, HSR Layout, Bengaluru, 560102"
"HAL Traffic Police Station","police","12.9588013","77.6675094","HAL Employees Quarters,Old Airport Road, Near HAL Post Office,Reddypalya, Bengalore, 560017"
"Upparpet Traffic Police Station","police","12.9744833","77.5748342","Kempe Gowda Circle, Danvanthri Rd, Majestic,, Bengalore, 560009"
"Traffic Police Station","police","12.9724461","77.5386676","BMTC Building, Vijayanagar Service Road, 8th Main Road, Hoshalli Extension, RPC Layout, Vijayanagar,, Bangalore, 560040"
"Thalaghattapura Police Station","police","12.8689461","77.5362854","Kanakapura Road"
"N/A","police","12.9081741","77.6368327",""
"Byadarahalli Police Station","police","12.9867684","77.491253","Magadi Road"
"High Grounds Traffic Police Station","police","12.9848902","77.5828907",""
"JC Nagara Police Station","police","13.0057165","77.5934124",""
"Ramamurthy Nagar Police Station","police","13.0041876","77.6659393","Kempegowda Underpass Road"
"Police Station","police","12.9965632","77.6425776",""
"Kengeri Police Station","police","12.9104906","77.4815428",""
"NIMHANS Police Outpost","police","12.9406149","77.5949214",""
"Mico Layout Traffic Police Station","police","12.9132041","77.6009835",""
"Chandra Layout Police Station","police","12.9589313","77.5283822",""
"Mahadevapura Traffic Police","police","12.9964893","77.6935636",""
"Office Of The Assistant Commissioner Whitefield Subdivision","police","12.9964748","77.6936783",""
"N/A","police","13.0747194","77.633371",""
"Cubbon Park Traffic Police Station","police","12.9760045","77.5981119",""
"Hebbal Traffic Police Station","police","13.0424185","77.5893069",""
"N/A","police","12.8715628","77.5760581",""
"Cybercrime Police Station","police","12.9903748","77.5929507",""
"Siddapura Police Station","police","12.9388722","77.5923803",""
"Whitefield Traffic Police Station","police","12.9942469","77.7571802",""
"Central Police Station","police","12.9601303","77.5720622",""
"Halasuru Gate Traffic Police Station","police","12.9665425","77.5870156","Cubbon Park Road, Opposite-BBMP Office, Cubbonpet,, Bangalore, 560002"
"CID Office","police","12.9814206","77.5855355",""
"Srirampura Police Station","police","12.9900504","77.5649365",""
"Cubbon Park Police Station","police","12.9762185","77.5982315",""
"Indira Nagar Police Station","police","12.9830254","77.6384064",""
"Additional Director General of Police","police","12.9779226","77.6010276",""
"Amrutahalli Police Station","police","13.0569304","77.5985304",""
"HAL Police Station","police","12.955069","77.6828084",""
"JP Nagar Police Station","police","12.9118515","77.5875409",""
"S.J. Park Police","police","12.9609483","77.5831297",""
"Madiwala Traffic Police Station","police","12.9210124","77.6206703","Madiwala Road, Santhosapuram, 1st Block Koramangala, Koramangala, Bengaluru, 560068"
"Mico Layout Police Station","police","12.908585","77.6106985",""
"Halasuru Police Station","police","12.9747988","77.6252645",""
"Ashok Nagar Police Station","police","12.9716319","77.6102037",""
"Kothanur Police Station","police","13.0555139","77.6463263",""
"HSR Police station","police","12.9201775","77.6513034",""
"Bellanduru Police Station","police","12.9190149","77.6679644","Sarjapur Road, PWD quarters, 1st sector, Bellandur, Bengaluru, 560103"
"Gangammagudi Police Station","police","13.0720972","77.5301925",""
"N/A","police","12.8766721","77.6000885",""
"Sadhashivanagar Police Station","police","13.0149658","77.5724873",""
"Yelahanka Police Station","police","13.095358","77.5938103",""
"High Grounds Police Station","police","12.9900595","77.5927243",""
"Mahalakshmipuram Police Station","police","13.0028414","77.547416",""
"Cyber Crime Police Station","police","12.9840887","77.5947229",""
"Commisioner of Police","police","12.9844786","77.5946399",""
"R T Nagar Traffic Police station","police","13.0333764","77.5886106",""
"KR Puram Police Station","police","13.0087574","77.6932934","New Police Station Road, Bangalore, 560036"
"Upparpet Traffic Police Station","police","12.9745187","77.5749342",""
"N/A","police","12.885446","77.671825",""
"Bellandur Traffic Police Station","police","12.9218103","77.6615877",""
"Police Headquarters","police","12.9695587","77.587855",""
"Department of Prisons & Correctional Services","police","12.9802646","77.5815071",""
"Adugodi Traffic Police Station","police","12.9415666","77.6087598","Corporation Complex,1st Floor, Hosur-Lashkar Road, Near-Vijaya Bank, Adugodi, Bangalore, 560030"
"Adugodi Police Station","police","12.9392272","77.6101711",""
"City Armed Reserve North","police","13.0753016","77.6356014",""
"Yeshwantpura Police Station","police","13.0178863","77.5584179",""
"Whitefield Police Station -Office of the Deputy Commisionner","police","12.9754425","77.7511388","Whitefield Main Road, 560066"
"Superintendent of Police","police","12.9895821","77.5920271",""
"Koramangala Police Station","police","12.9410977","77.6214106",""
"Pulakeshi Nagar Police Station","police","12.9993467","77.619613",""
"Rajaji Nagar Police Station","police","12.99461","77.5543664",""
"High Grounds Traffic Police Station","police","12.9847727","77.5829241",""
"Kumaraswamy Layout Police Station","police","12.9050939","77.5629547",""
"Viveknagar Police Station","police","12.9518683","77.622351",""
"Shivajinagar Traffic Police Station","police","12.9879685","77.6035505",""
"Konanakunte Police Station","police","12.8838351","77.5663627",""
"Marathahalli Police Station","police","12.9455492","77.6979473",""
"DJ Halli Police Station","police","13.0114152","77.6130934",""
"N/A","police","12.9654109","77.5100015",""
"Office of the Assisstant Commisioner of the Police","police","13.1001374","77.5839619",""
"Vijayanagara Traffic Police Station","police","12.9606478","77.5408201",""
"Wilson Garden Police Station","police","12.9501836","77.5961204",""
"Basavangudi Police Station","police","12.9421865","77.5743328",""
"Hennur Traffic Police Station","police","13.0706327","77.6363671",""
"Mahadevpura Police Station","police","12.9968133","77.6928379","Whitefield Road"
"N/A","police","12.9964924","77.6935887",""
"Baiyyapannahalli Police Station","police","12.9917352","77.6573426",""
"Banaswadi Police Station","police","13.0196732","77.6401561",""
"Subramanyanagar Police Station","police","13.0033745","77.5537585",""
"Bharthinagar Police Station","police","12.9911983","77.6120845","Frazer Town Police Station, Near-Mark Circle, Frazer Town, bangalore, 560005"
"RT Nagar Police Station","police","13.0246853","77.5931961",""
"Kadugondanahalli Traffic Police Station","police","13.0198144","77.619254",""
"Kadugondanahalli Police Station","police","13.0194119","77.6192385",""
"Rajarajeshwari Nagar Police Station","police","12.9128125","77.520516","Mysore Road, Rajarajeshwari Nagar, Sachidananda Nagar, RR Nagar, Bengaluru, 560098"
"KR Puram Traffic Police Station","police","13.0078716","77.6938172","Old Madras Road, K.R Puram, Bangalore"
"Varthur Police Station","police","12.9380254","77.7469329","Varthur Main Road"
"Basaveshwaranagar Police Station","police","12.9854169","77.5426024",""
"Hebbal Fire Station","fire_station","13.0482487","77.6185279",""
"ITI Fire Station","fire_station","13.0037983","77.6786402",""
"Bengaluru Secretariat Fire Station","fire_station","12.9777636","77.5888047",""
"N/A","fire_station","13.0280181","77.5208174",""
"Sarjapura Road Firestation","fire_station","12.9168126","77.6738567",""
"Office of the Chief Fire Officer","fire_station","12.9728364","77.6102567",""
"Mahadevapura Fire Station","fire_station","12.9984702","77.7023641",""
"Jayanagara Fire Station","fire_station","12.9337951","77.600289",""
"High Grounds Fire Station","fire_station","12.9805943","77.5799311",""
"Whitefield Fire Station","fire_station","12.9873201","77.7321113",""
"Nagarbhavi Fire Station","fire_station","12.9354153","77.5100279",""
"Anjanapura Fire Station","fire_station","12.8588406","77.5634538",""
"Hulimavu Fire Station","fire_station","12.8723517","77.5988148",""
"Banashankari Fire Station","fire_station","12.9221457","77.5611832",""
"Bengaluru North Fire Station","fire_station","12.9625043","77.5634324",""
"Peenya Fire Station","fire_station","13.0279503","77.5205608",""
"Fire Station","fire_station","13.0226214","77.5499132",""
"Yelahanka Fire Station","fire_station","13.125144","77.600951",""
"Rajajinagar Fire Station","fire_station","12.9806566","77.5485024",""
"Banaswadi Fire Station","fire_station","13.0116118","77.6459969",""
"Clinic","hospital","12.9134182","77.6774852",""
"Shanti Hospital","hospital","12.9235041","77.5857517",""
"Apollo Hospital","hospital","12.9263714","77.6765455","74/1, Bellandur, Ring Road, Varthur"
"Narayana Hrudayalaya Dental Clinic","hospital","12.9155759","77.6349897","Outer Ring Road"
"Dr Ganesh Medical and Diabetic Clinic","hospital","12.9129006","77.6419101",""
"JBS Hospital","hospital","12.9207173","77.5745968","Kanakapura Road"
"Jayanagar heart Centre","hospital","12.9231684","77.584433",""
"Sri Vijayalakshmi Pragathi Hospital","hospital","13.0371728","77.6409543",""
"Sathya Hospital","hospital","13.0185503","77.6364728",""
"Chord Road Hospital Pvt Ltd","hospital","12.9981215","77.5404836","#100/101, Lic Colony West Of Chord, Basaveshwaranagar"
"Pristline Hospital","hospital","12.9978931","77.5436127","Modi Hospital Road (West of Chord Road), Basaveshwara Nagar, Bangalore, 560079"
"Bengaluru Hospital, Susruta Medical Aid AndResearch Home Limited","hospital","12.9376734","77.5802836","202, R.V.Road"
"Manipal Northside Hospital","hospital","13.0011275","77.5639285","71, 11Th Main Road, Opposite Malleshwaram Railway Station, Malleshwaram"
"Government Primary Health Centre","hospital","12.9503234","77.6162619",""
"Divakars speciality Hospital","hospital","12.9100629","77.5924585","220, 2nd phase, JP Nagar,Next to Nilgiris"
"Hema Poly Clinic","hospital","12.960765","77.7137961",""
"BMTC Hospital","hospital","12.9234317","77.5923374",""
"Ramakrishna Nursing Home and Hospital","hospital","12.9364329","77.583477",""
"Sri Vinayaka Poly Clinic","hospital","12.939058","77.5510802","80 Feet Road, SBM Colony, Near-Bank Colony Bus Stop, Banashankari 1st Stage, bangalore, 560050"
"RMV Hospital","hospital","13.0322788","77.576876",""
"Yashomathi Hospitals","hospital","12.9559302","77.7112689","Varthur Road, Bangalore"
"Mallya Audikesh Diagnostics Center","hospital","12.9815051","77.6011944","Infantry Road, Bangalore, 560001"
"Mallige Medical Centre","hospital","12.985247","77.5803846","Crescent Rd,Nehru Nagar,Gandhi Nagar, Bangalore, 560001"
"Devine Hospital","hospital","13.0038999","77.6039313","110,6Th Main Iti Layout Benson Town Post"
"Lalbagh Nursing Home","hospital","12.9452313","77.5861734","Siddapura Road"
"Dr. Batra Clinic","hospital","12.9797287","77.7271089",""
"Government Maternity Hospital","hospital","12.9988604","77.5817424",""
"Soujanya Clinic","hospital","12.9681189","77.54325",""
"Kanva Diagnostics Collection Centre","hospital","12.967291","77.5429164",""
"New Akshay Mallya Hospital","hospital","12.9568527","77.6990468","93/1, 565, Srinivasa Complex Ring Road Attached To Main Road"
"Presidency Hospital","hospital","12.9951629","77.69923","Whitefield Road"
"BGS Gleneagles Hospitals","hospital","12.90306","77.4974982","67, Uttarahalli Road, Kengeri"
"Srinivas Clinic","hospital","12.9073391","77.5830655","29 Main"
"N/A","hospital","13.0043642","77.5652959",""
"Metro Hospital","hospital","12.8915893","77.560715",""
"Brookefield Hospital(A Unit Of Sanjeevani Hospital)","hospital","12.9668213","77.7168891","521, 522, Vijayalakshmi Square Itpl Main Road Kundallahall Near Cosmos Mall"
"Tenet diagnostics","hospital","12.9573067","77.7087044","Spice Garden Compound Road, Marathahalli, Bangalore"
"ESI Hospital","hospital","12.995242","77.6523255",""
"Karunalayam Hospital","hospital","12.9111263","77.7073377",""
"SDS Tuberculosis Research Centre and Rajiv Gandhi Institute of Chest diseases","hospital","12.9367955","77.5907094",""
"Maiya Multispecialty Hospital","hospital","12.942614","77.5854533","34, 10Th Main 1st Block, Jayanagar"
"Narayana Netralaya","hospital","12.9671401","77.6094485","#37, Castle Street, Opp Sacred Heart Church, Ashok Nagar, B.E"
"Nagappa Hadli Hospital","hospital","13.0829889","77.5489026","M S Palya, Bharath Nagar,Hesaraghatta Main Road,Vidyaranyapura Post"
"Vasan Eye Care Hospital, Nagarabhavi","hospital","12.9746134","77.5129757","No-5, 20 Th Cross, Malagala Under Pass Ring Road"
"Rc Hospital","hospital","12.930936","77.5153776","No. 484/A, Ideal Homes Township, 18th Main Road, Rajarajeshwarinagar"
"Veturi Child Health Centre","hospital","12.9263226","77.5156579",""
"Ketham's Hospital Pvt. Ltd","hospital","13.0686568","77.5582571","# 50/2, Vidyaranyapura, Nanjappa Main Road"
"Ragavendra Hospital","hospital","13.0425433","77.5155377",""
"Guru Kripa Clinic","hospital","13.0349833","77.5676844",""
"Deeksha Orthopaedic Hospital","hospital","13.0973922","77.5964894",""
"Shushrusha Hospital","hospital","13.0997316","77.5980216",""
"Chirag Hospital and Maternity Center","hospital","12.9126298","77.5913594","1635,17Th Main ( Near To Woody `S Hotel) 2nd Phase J.P. Nagar, Banglore"
"Udhbhava Hospital","hospital","12.9256842","77.5489346","No:114, 100 Feet Ring Road, 3Road Stage Banashankari"
"DG Hospital","hospital","12.9206648","77.5598673","274 / 275, M K Puttalingaiah Road, Padmanabhanagar"
"Srinivasa Nursing Home","hospital","12.9423039","77.6174893",""
"Kangila Clinic","hospital","12.9336501","77.5660602",""
"Chaitanya Hospital","hospital","13.0990911","77.5861904",""
"Vasan Eye Care Hospital, Koramangala","hospital","12.9402371","77.6253403","No.897/C, 80 Feet Road, 6th Block, Koramangala"
"health nest","hospital","12.9075992","77.6488507",""
"Amma's ENT Clinic","hospital","13.0281613","77.5793947",""
"Krishna Specialty Clinic","hospital","13.026721","77.5789272",""
"Seventh Day Adventist Hospital","hospital","12.995625","77.6113272","Saunders Road, Bengaluru, 560005"
"Srinivasa Nursing Home","hospital","12.9965077","77.6220456",""
"Kids Care Clinic","hospital","12.914434","77.6050207",""
"Pristine Health care","hospital","12.9382768","77.6186753",""
"Prerana Dental Clinic","hospital","12.9186845","77.630774",""
"Mamtha Health Center","hospital","12.9180492","77.6318764",""
"Suprabha Hospital","hospital","13.0079383","77.5469059",""
"Sangolli Nursing Home","hospital","13.0083564","77.5469273",""
"Diacon Hospital","hospital","13.0037682","77.5498337","359 / 360, 19Th Main 1 St Block Rajajinagar Near Indian Bank"
"Agarwal Eye Hospital","hospital","12.9273417","77.6221301",""
"Sri Sapthagiri Clinic","hospital","12.8736928","77.6449626",""
"Sagar Dental Clinic","hospital","12.9169725","77.6300572",""
"Venkateshwara Hospital","hospital","12.9257842","77.6170828","Hosur road"
"Namratha Hospital","hospital","13.0047859","77.543073",""
"Devi Eye Hospital","hospital","12.9162576","77.6374069",""
"Mysore Hospital","hospital","13.0275337","77.5397051","No. 35/6, Industrial Suburb, Goragunte Palya, Yashwantpur"
"Jayanagar Orthopaedic Centre","hospital","12.9293288","77.5877091","24/1-1, 14Th Main, 4Th Block East Jayanagar"
"Shekar Hospital","hospital","12.9458714","77.5675192","No.81,Bulltemple Road,Near Ramakrishna Ashram"
"Punya Hospital","hospital","13.0011459","77.5359798",""
"Vasan Eye Care","hospital","12.9102705","77.6265538","Hosur road"
"Parimala Clinic","hospital","12.9135707","77.5788941","Ayodhyarama Road"
"Karanth Speciality Hospital","hospital","12.9160081","77.6193573","No 72, 35Th Main 1st Cross 100 Ft Ring Road, Btm Layour, 2nd Stage Btm Layout"
"Gangothri Hospital","hospital","12.9162878","77.6138218","No.27, Kuvempunagar, B.T.M.Layout, 100 Ft. Ring Road"
"Spurthy Hospital","hospital","12.9239335","77.61116","#22, 1st Main, Chocolate Factory Road , Tavarekere Btm Layout"
"Prasad Eye Hospital","hospital","12.9351929","77.6086817",""
"NIMHANS Screening block","hospital","12.9387115","77.5937737",""
"NIMHANS OPD","hospital","12.9388056","77.5942994",""
"Manjunath Hospital","hospital","12.9483598","77.5940621","87/2, 8Th Cross,Wilson Garden"
"Karthik Hospital","hospital","12.9484356","77.5942592","8th Cross"
"Aswad Hospital","hospital","12.9147871","77.6247622","No-206, Reddy Building , Roopena Agrahara Opp Roopena Agrahara Bus Stop, Hosur Main Road"
"TSR heart care","hospital","13.0264438","77.5933686",""
"Fortis Hospital","hospital","13.0022409","77.5490879","111, West Of Chord Road, Mahalakshmipuram, Rajajinagar I Block"
"Citi Hospital","hospital","12.9956506","77.5510696","25/91, Chord Road, Iind Block, Rajajinagar"
"Vasan Eye Care Hospital, Rajaji Nagar","hospital","12.9995223","77.5505328","Old 389, New 46, 19th Main, 1st Block, Rajaji Nagar"
"Ananya Hospital","hospital","12.9998205","77.55045","No.389/44, 19th Main, 1st Block, Rajajinagar"
"Baptist","hospital","12.9970915","77.5719766",""
"Shivakrupa Hospital","hospital","12.973967","77.5479135",""
"Dr. Ambedkar Medical College Hospital","hospital","13.0248621","77.6139585",""
"Sri Maruthi hospital, Sheshadripuram","hospital","12.9926441","77.5742046","No.67,Link Road,Sheshadripuram"
"Sunny Medicals Hospital Clinic","hospital","12.9267954","77.6699091",""
"Karunya Homoeopathy Centre","hospital","13.0307899","77.653594",""
"Ayur Seva Hospital","hospital","13.0148188","77.6653699",""
"Vinayaka Specialty Hospital","hospital","12.8990004","77.6218548",""
"Koshys Hospital","hospital","13.0207033","77.6760593",""
"Gurushree Hitech Multispeciality Hospital","hospital","12.9593144","77.5265054","No. 1558, Opposite Chandra Layout Bus Stand, Chandra Layout, Vijaynagar"
"Shobha Hospital, Bengaluru Urban","hospital","12.9755854","77.5313495","29 And 30, Nagarbhavi Road, Opp To Prashanthnagar Bus Stop, Vijaynagar"
"Gayathri Hospital, Bengaluru Urban","hospital","12.9744053","77.5426819","# 91, Magadi Chord Road"
"MEDSOL Hospital","hospital","12.9309944","77.4929837","3 P (2), 60 Ft Road, Jnanabharathi Layout, 1st Block, (Valgerhalli), Near To Srikki Apartment"
"Government Primary Health Centre","hospital","13.003447","77.504284","Hegganahalli"
"Bharathy Hospital","hospital","12.9761294","77.5326369","No.4, Nagarabhavi Main Road,Prashanth Nagar,Near Shopper City Shop"
"Yogananda Medical and Research Centre","hospital","12.9202791","77.5598033","No. 277, M.K. Puttalingaiah Road, Padmanabha Nagar"
"Government Primary Healthcare Center, Begur","hospital","12.8778532","77.6246582","Begur Main Road, Classic Paradise Layout, Bommanhalli, Bengaluru"
"Cure & Care Dental Clinic Dr. Moumita Mukherjee","hospital","12.9074968","77.6492213",""
"Shirdi Sai Hospital","hospital","13.0372438","77.5648754","No 519 2nd Nain Netravathystreet, Devasandra, New Bel Road"
"Nayantara Opticals","hospital","12.8924828","77.6198497",""
"Kottakkal Arya Vaidya Sala","hospital","12.9411061","77.5850591",""
"Charan Homeopathy, Ramamurthy Nagar","hospital","13.0100409","77.6674667",""
"Dhanavantri Hospital","hospital","13.0834023","77.6348642",""
"T.R.Hospital","hospital","12.8807554","77.5841671","Kothanur Dinne Main Road,Sapthagiri Layout,OppositeFabricana Factory,J.P.Ngar,8Th Phase"
"Rainbow Clinic and Diagnostic Laboratory","hospital","12.891484","77.5816961",""
"Cloud Nine Hospital","hospital","13.0078742","77.5625316","11th Main Road,17th Cross, Bangalore"
"Nayak Hospital, Gayathri Nagar","hospital","12.9993857","77.5606403","No 3367,5Th Cross, Gayathri Nagar"
"Rajnandani Hospital, Bangalore","hospital","12.8845448","77.5701276","#3, 6 th Cross, Old Bank Colony, Konanakunte"
"Maharaja Agrasen Hospital, Bengaluru Urban","hospital","12.915903","77.5550223","15Th Main, 17Th Cross Padmanabhanagar"
"Banashankari Referral Hospital","hospital","12.9231342","77.5642974","17Th, Main,27Th Cross, Banashankari 2nd Stage, South"
"Bangalore Kidney Foundation - NU Hospital","hospital","12.9179548","77.555816",""
"Panacea Hospital, Nagarabhavi","hospital","12.9613237","77.511726","# 611 /612, Nagarabhavi Main Road"
"Shanbhag Hospital","hospital","12.9856882","77.5435424","#6, Thimmaiah Layout, 1st Main 3rd D Cross, 3rd Stage, 2nd Block"
"Trupti Nursing Home","hospital","12.9946566","77.5397544","No. 463, 1st Block, 3Road Stage, Dr.Siddaiah Puranika Road, Basaveshwaranagear"
"Srivijaya Speciality Hospital","hospital","13.0124345","77.6580271","No. 699, 3Road Main Road,Bhuvanagiri Layout,(O.M.B.R),Doddabanasawadi"
"Magnus Diagnostic Lab","hospital","12.9349187","77.6305022",""
"Krupa Medical center","hospital","13.000431","77.5411664",""
"Soukya Hospital","hospital","13.0774744","77.5587548","17, Nti Layout, Vidyaranyapura"
"Greenview Medical Center","hospital","12.9191813","77.6381379","14th Main Rd, opposite Agara Lake, Sector 5, 1st Sector, HSR Layout, Bengaluru, 560102"
"Vaidyaratnam Oushadhasala","hospital","12.9121004","77.6485848",""
"Blossoms Hospital","hospital","12.9064393","77.6308237",""
"Live100","hospital","12.8791713","77.6454925",""
"ESi Hospital","hospital","13.0077936","77.6923101","Old Madras Road, K.R Puram"
"Happy Tooth","hospital","12.9744193","77.5336479","Vijayanagar Water Tank Road, Bangalore, 560040"
"Rishi Women and Child Clinic","hospital","12.9745812","77.532699","Vijayanagar Water Tank Road, Bangalore, 560040"
"Penta Care Ayurvedic Hospital","hospital","12.9736894","77.5369482","Vijayanagar Water Tank Road, Bangalore, 560040"
"Shalini Nursing & MAternity Home","hospital","12.9436624","77.5419997","6th Main Road, Bangalore, 560085"
"Shreya Poly Clinic","hospital","12.9729127","77.5394723","6th Main, Bangalore, 560040"
"Anurag Medical Center","hospital","12.9612829","77.5271683","4th Main Road, Bangalore"
"United Medical lab","hospital","13.0007683","77.6132902",""
"Pragathi Ayurvedic Center","hospital","12.9843701","77.555666",""
"Narayana Hrudayalaya Dental Clinic","hospital","12.9231571","77.6728066",""
"Vatsalya Chidren's Clinic","hospital","12.8948505","77.6109105",""
"Kottakkal Arya Vaidya Sala","hospital","12.9002599","77.6271003",""
"Sharavathi Hospitals (P) Ltd.","hospital","12.9623406","77.5342853","No.1133/F,30 Ft.Service Road, R.P.C. Layout,Vijaynagar"
"Dr.Agarwal's Eye Hospital Ltd, Padmanabha Nagar","hospital","12.9169288","77.5592568","No. 30, Pavana Dhama, 80 Feet Main Road,Opposite Nilgiris,Padmanabha Nagar"
"Shraddha Eye Care","hospital","12.9184617","77.5555842","Thimmaiah Road, Padmanabhanagar, Bengaluru"
"Vasan Eye Care Hospital, Rajarajeswari Nagar","hospital","12.931334","77.5154779","#483, 16 Th Cross, 8 Th Main"
"Cloud Nine Fertility","hospital","12.9055088","77.5858347","24th Main, 5th Phase, Opp Nandini Hotel, Puttenhalli, JP Nagar, bangalore, 560078"
"Aikya Healthcare","hospital","12.8827229","77.5466715","Kanakapura Road, Bangalore, 560062"
"Konanakunte Government Hospital","hospital","12.8840897","77.5664029","PARK, NEAR PARK"
"Cloud Nine Hospital","hospital","12.9878709","77.7319773","Whitefield Main Road, Bangalore, 560066"
"Telerad Rx Dx Health Care Whitefield","hospital","12.9768424","77.7103746","Mahadevapura, Bangalore, 560048"
"Motherhood Hospital(Unit Of Rhea Healthcare Pvt Ltd)","hospital","12.9784409","77.6375845","No. 324, Cmh Road Indiranagar 1st Stage Next To Vijaya Bank Building"
"Respiratory and womens health clinic.","hospital","12.9762645","77.6376528",""
"Rashmi Hospital","hospital","12.9766951","77.6362278","Indiranagar Double Road (Paramahansa Yogananda road)"
"Netradama Eye Hospital","hospital","12.9734836","77.6357281",""
"Sree Venkateshwara Speciality Hospital","hospital","12.9425246","77.6025303","1, 1st Cross, Gupta Layout,Lakksandra, Near Dairy Circle"
"Leela Hospital and Diagnostic Center","hospital","13.0002667","77.5694894","# 133, Margosa Road,10Th Cross, Malleshwaram"
"Dr. Rajkumar Blood Bank","hospital","12.968031","77.5878222",""
"Nelivigi Eye Hospital","hospital","12.9241818","77.6737518","446/21 Above Vijaya Bank, Opposite To Amba Bajaja Showroom"
"Sanghi Medical Centre (P) Ltd","hospital","12.9517397","77.6994832",""
"Sri Sai Krupa Hospital, Bengaluru Urban","hospital","13.0294181","77.5593857","No. 19/A, Opposite Lic , Mathikere Main Road"
"ALDOS Medical Service Pvt LTD","hospital","12.9826672","77.6381036",""
"Government Hospital","hospital","12.8870605","77.603414",""
"Rajashree Granthim hospital","hospital","12.8893134","77.602422",""
"Krishna Nursing Home","hospital","12.9474222","77.5986921",""
"Shifa Hospital, Bengaluru Urban","hospital","12.9900105","77.5988107","Queens Road"
"Milann Fertility Center","hospital","12.9159249","77.5856011","Jayanagar, J P Nagar, Bengaluru"
"Gift IVF center","hospital","12.962951","77.6418711",""
"HCG Cancer Hospital","hospital","12.9603157","77.5930493","44-45/2, 2nd Cross Raja Rammohan Roy Extn Off Lalbagh Double Road"
"Health Care Global","hospital","12.9584755","77.5919279",""
"Gulecha Dental Care","hospital","12.9292418","77.5893625","4th Cross Road, KV Layout, Jayanagar 4th Block, Bangalore, 560011"
"N/A","hospital","12.9767055","77.5424167","8th cross"
"Rajbal Skin Clinic","hospital","13.0206063","77.6445361","4th B cross, 7th C Main, Bangalore, 560043"
"Prashanth Hospital","hospital","12.9066637","77.6287463","90-D, Bommanahalli Circle, Hosur road"
"Dianova Diabetes Center and Hospital","hospital","13.0147612","77.6335463",""
"Ameena Medical centre","hospital","12.9777082","77.6323407","18th Cross Road"
"Dr.Agarwal Eye & Dental Hospital","hospital","12.9700356","77.6362439",""
"SRL Diagnostics","hospital","12.9599306","77.7160447",""
"Dr Raos Maternity Hospital","hospital","12.9850421","77.5460481","No 370.371,I Stage West Of Cord Road"
"Sagar Chandramma Hospitals","hospital","12.9485535","77.5748248",""
"Trilife Hospital","hospital","13.0169826","77.6432959","Kalyan Nagar, Bengaluru"
"Vignesh Lab and Diagnostics","hospital","13.0267226","77.6041132",""
"Apollo Cradle","hospital","12.9368104","77.6206345","No.58, 5th Cross, 18th Main Dhanlakshmi Bank Building"
"Shiva Kumaraswamy Building","hospital","12.9717049","77.5493718",""
"Myo Medex - Ace Speciality Clinic","hospital","12.8615976","77.5999324",""
"Stanford Speciality Hospital","hospital","12.911533","77.6764094","Kasvanahalli Road, Behind State Bank of Mysore, Sarjapur Road, Kaikondrahalli, Bangalore, 560035"
"Dr Mohan Nursing Home","hospital","12.9124371","77.6813917","Sarjapur Road, Bangalore, 560035"
"Sparsh Clinic","hospital","12.9072384","77.6755805","Kasavanahalli Road, Bengaluru, 560035"
"Raksha Orthopaedic And Multi Speciality Centre","hospital","12.9041502","77.6741043","Lake Shore HomesRoad, Amrita college road, off sarjapur road, Kasavanahalli, Bangalore, 560035"
"Narayana Nethralaya","hospital","12.8750879","77.5950098",""
"Naadi Ayurveda Center","hospital","12.9121008","77.6820003","Doddakannelli, Sarjapur Road, Bangalore, 560035"
"Kottakkal Arya Vaidya Sala","hospital","12.9217604","77.6618321","Service Rd, Agara, Iblur Village, Bellandur, Bengaluru, 560103"
"The Family Doctor & The Family Pharma","hospital","12.9122002","77.6818637","Sarjapur Main Rd, Kaikondrahalli, bangaluru, 560035"
"Life Care Hospital","hospital","12.9194712","77.6130111","No. 23/24, Om Complex, 20th Main, Gangothri Circle B.T.M. 1st Stage, Bangalore"
"Bhagavathi Hospitals Private Limited","hospital","12.9161259","77.6311505","#77, Kamarajar Salai,Arasamaram Pillaiyar Koil"
"Gunasheela Hospitals","hospital","12.9250105","77.6278708","Sulochana Building, 1st Cross Rd, 3rd Block, Sarjapura Main Road, Koramangala, bangalore, 560034"
"NRS Medical & Dental Specialists Centre","hospital","12.9151071","77.5624888","80 feet road,banashankari, bangalore, 560050"
"Anurag Medical Centre","hospital","12.9060641","77.6049776","Main Road, Chandra Layout, Vijayanagar,, bangalore, 560070"
"Sarvodaya Hospital","hospital","12.9390944","77.5619057","Magadi Main Road, bangalore, 560079"
"Indianova Healthcare Pvt Ltd","hospital","12.9703581","77.63022","3rd main shridi sai baba mandir road, Cambridge layout halasuru, Bangalore, 560008"
"Sky Diagnostic Centre kumbena agrahara","hospital","12.9977711","77.7548105","Kk White Castle Apartment, Vijaya Lakshmi Colony, Kumbena Agaraha Main Rd, Kadugodi, Bangalore, 560067,"
"Dr Rachna - Homeopathy","hospital","12.9179831","77.6691258","Sarjapur Main Rd, Bellandur, Bangalore, 560034"
"Regal Hospital","hospital","13.0830463","77.6347174","Thanisandra Main Road, Chokkanahalli, Bangalore, 560064"
"Thyrocare","hospital","13.0158543","77.7033173","Near Sathya Sai Lake Side Hospital, 3rd Main, Vinayaka Layout, Old Madras Road, Battarahalli, K.R. Puram, Vidya Nagar, Krishnarajapuram, Bengaluru, 560049"
"Welnext","hospital","12.9240063","77.6545058","Third Floor, H.S.R Agara Circle, Sarjapura, Outer Ring Rd, Agara Village, HSR Layout,, Bangalore, 560102"
"Employees State Insurance Dispensary","hospital","12.966771","77.5349228","17th Cross Rd, Service Road, Opp. Maruthi Mandir, TTMC Bus Stop, Govindaraja Nagar Ward, PF Layout, Vijayanagar, Bangalore, 560040"
"Dr Solankis Eye Hospital","hospital","12.9951627","77.5738144","No: 2, Sirur Park Road (Behind Natraja Theatre) Seshadripuram"
"Sri Sanjeevini Cold Laser Therapy","hospital","13.0053923","77.5713352","3rd Flr, Srikrupa, Nxt To Adiga Hotel, 15th Crs, Sampige Mn Rd, Malleswaram, bangalore, 560003"
"Dr. Bhargavi Reddy Women & Children Hospital","hospital","12.975403","77.6470594","Indiranagar 80ft Road, New Thippasandra, Hal 3rd Stage, Via Indira Nagar 80ft Road, bangalore, 560075"
"Axon Speciality Hospital","hospital","12.973892","77.6460904","6th Main Road, HAL 2nd Stage, Indira Nagar, BENGALURU, 560038"
"Bright Children's Clinic","hospital","12.9891818","77.689783","ORR Service Road, Shiva Ganga Layout, B Narayanapura, Mahadevapura, Bangalore, 560048"
"Sanjeevini Children & Women Clinic","hospital","13.0316481","77.6023154","Sultanpalya Main Road, Near-Bus Stand, R T Nagar, Bangalore, 560032"
"Procare Hospital","hospital","13.0203944","77.6512682","Outer Ring Road, BANGALORE, 560043"
"Parimala Health Care","hospital","12.9003193","77.6008061","Bannerghatta Road, Bangalore, 560076"
"Sriram Hospital, Bangalore","hospital","13.0087504","77.6939806","No. 107 / 2, Nishvasahaa Centre, Opposite Traffic Police Station Road, Old Madras Road, Krishnaparajapuram"
"K R Puram Super Speciality Hospital","hospital","13.0110115","77.6935975","3rd Main Road, Old Extension, Krishnarajapuram, Near Indane Gas, Bangalore, 560036"
"Maithri Nursing Home","hospital","13.0048396","77.7036425","Devasandram Main Road Enterance, Krishnarajapuram"
"N/A","hospital","12.9702741","77.6468603","12th Main, HAL II Stage, Indiranagar, Bangalore, 560038"
"Medic Star Hospital","hospital","12.9876871","77.6093097","17-1, Sepings Road Cross,Arunachala Mudaliar Road, Shivajinagar,Cole's Park- Taj Hotel"
"Hsis Gosha Hospital","hospital","12.9856985","77.6058578","Tasker Town, Near-KSPCB Limited, Shivaji Nagar, Sulthangunta, Shivaji Nagar, bangalore, 560051"
"Santosh Hospital","hospital","12.9959413","77.6082575","No. 6 / 1, Promenade Road, Behind Coles Park, Near Goodwill School"
"Hospital","hospital","12.9914123","77.6117329","St Johns Church Rd, Bharati Nagar, Shivaji Nagar, bangalore, 560001"
"Keva Ayurveda Health Care Pvt Ltd","hospital","12.9127062","77.6201668","7th Cross, 35th Main, BTM 2nd Stage,, Adjacent DSR Naveen Lake View Apartments, Karnataka, Bengaluru, 560076"
"Ayurvaid Hospital","hospital","12.9552696","77.6428508","230, Amarjyothi Layout, Off.Intermediate Ring Road, Domlur Extension"
"H B S Hospital","hospital","12.9891941","77.6037864","Sultan Gunta,, Cock Burn Rd, Sulthangunta, Shivaji Nagar, bangalore, 560051"
"St. Martha's Heart Centre","hospital","12.9705436","77.5834769","Nrupathunga Rd, RBI Colony, Sampangi Rama Nagar, Bangalore, 560001"
"Sumathi Nursing and Maternity Home","hospital","13.0325717","77.5582602","#426/12, 2 Cross,Mathikere Layout,Behind Canara Bank, bangalore, 560054"
"Desai Nursing Home","hospital","12.9863736","77.5793154","Kumarakrupa Road, High Grounds, Madhava Nagar, Gandhi Nagar, Bangalore, 560001"
"Fortis Hospital","hospital","12.9881648","77.5548179","West of Chord Road,, Opp Rajajinagar 1st Block Junction, bangalore, 560010"
"Healing Earth Multispeciality Ayurveda Hospital","hospital","12.9165359","77.6361865","HSR Ring Road, 5th Sector , HSR Layout, Karnataka, Bengaluru, 560034"
"Global Ayurveda Multispeciality Hospital","hospital","12.9165795","77.6362187","HSR Ring Road, 5th Sector , HSR Layout, Jakkasandra, 1st Block Koramangala, HSR Layout, Karnataka, Bengaluru, 560034"
"Brahmi Ayurvedic Center","hospital","12.8830054","77.6073285","12th Main Road, Behind Ingu Tengu Restaurant, Off Bannerghatta Road, Shantiniketan Layout, Karnataka, Bengaluru, 560076"
"Fj Merrit Hydrotherapy And Wellness","hospital","12.9344224","77.6299785","KAY ARR CORNER STONE 2nd Floor 80 Feet Road 4th Block, Koramangala,Karnataka, Bengaluru, 560034"
"Vedam Ayurveda Multispeciality Hospital","hospital","12.9175511","77.6039486","8th B Main Road, BTM Layout 1st Stage, KEB Colony, New Gurappana Palya, BTM Layout 1, Karnataka, Bengaluru, 560029"
"Ayur jagruti","hospital","12.9667253","77.6378289","10th Cross Rd, Doopanahalli, Indiranagar, Karnataka, Bengaluru, 560008"
"Herbocare Hospital Pvt","hospital","13.0204424","77.6440607","4th B Cross, 7th A Main, 1st Block, HRBR Layout, Kalyan Nagar, Bangalore, 560043"
""" NRS Medical & Dental Specialists Centre""","hospital","12.9378359","77.5573329","80 Feet Road, 1st Stage, Srinivasa Nagar, Banashankari, Bangalore, 560050"
"Tele Rad RX DX Health care Pvt Ltd","hospital","12.9992982","77.7575636","First Floor Above Dominos Pizza Opposite Sai Baba Ashram Kadugodi, Kadugodi, bangalore, 560067"
"Chiranjeevi Hospital & Maternity Home","hospital","12.9386994","77.5518394","2nd Main, Bsk 1st Stage, 80 Feet Road, Srinivasa Nagar,Sree Manjunatha Temple Street, bangalore, 560050"
"Vinayaka Hospital, Hanumantha Nagar","hospital","12.9373748","77.5494778","110, 1st Main, Sbm Colony, Bsk 1st Stage Hanumantha Nagar"
"Diavista Diabetes & Multispeciality Hospital","hospital","12.9354293","77.5477956","11th Cross, 2nd Main, 80ft Main Road, SBM Colony, Giri Nagar 4th Phase, Banglore, 560050"
"Meenakshi Hospital","hospital","12.9420715","77.553698","50 Feet Road, Bengaluru, 560085"
"Medi-Tech Multi Speciality Hospital","hospital","12.9408667","77.5603657","#795/1, 9Th Main ,Bsk 1st, Stage,2nd Block,Hanumantha Nagar"
"Kusuma Hospital","hospital","12.9420124","77.5506918","Nagendra Block, 50ft Road, 10th Main Rd, Srinagar, Banashankari, bangalore, 560050"
"Ring Road Hospital","hospital","12.9274553","77.5516293","1st Main Road, Kathreguppe Cross Road, Kathreguppe, Banashankari 3rd Stage, Bangalore, 560085"
"Pulse Multispecialty Hospital","hospital","12.9389007","77.5438808","20th Main Road, Muneshwara Block, Girinagar, 1st phase Girinagar, Kadavanthra, Banashankari, bangalore, 560085"
"Surya Galaxy Hospital","hospital","12.9316792","77.5450887",",2nd Main,1st Block,4th Phase,Kathriguppe,BSK 3rd Stage, Water Tank Road, Banashankari, bangalore, 560085"
"Wellness Ever","hospital","12.9593576","77.7461682","Sai Harsha Towers, 2nd floor, Opp Forum Value Mall, Above HDFC Bank,, Whitefield Main Road"
"Hair Loss Treatment in Bangalore - Hairline International","hospital","12.9566858","77.7419283","MCC Tower, Opposite Sigma Tech Park, Varthur Kodi, Varthur Main Rd, Ramagondanahalli, Whitefield, Bengaluru, 560066"
"Surya Diagnostics and Health Services","hospital","12.9242825","77.6170883","Hosur Road, Madiwala, Venkateshwara Layout, Sadduguntepalya, Bangalore, 560029"
"Nimi dental bangalore","hospital","13.0090882","77.6918556","3rd Floor, Nishvasaha Centre, Opp. Traffic Police, Old Madras Road, K.R.Puram, Bangalore, 560036"
"New Life Hospital bangalore","hospital","12.9967611","77.7591252","Opposite Whitefield Railway Station, Kadugodi, Bangalore, 560067"
"Ayushman Ayurvedic therapy centre","hospital","12.9946163","77.6023871","Millers Rd, Cantonment Railway Quarters, bangalore"
"Pristine Hospital","hospital","12.9984229","77.5403887","Dr. Modi Hospital Road, 2nd stage extension, Bangalore, 560010"
"Sri Vinayaka Hospital","hospital","12.9575029","77.5276466","#1222, 80, Feet Road, Chandra Layout"
"Shathayu Ayurveda Wellness Centre","hospital","12.9573897","77.5276882","14th Main Road, Bangalore, 560040"
"Hospital Sharavathi","hospital","12.9594984","77.5275515","30 Service Road Rpc Layout Vijaynagar, Chandra Layout, Bangalore, 560040"
"Arogya Kendra","hospital","12.9735891","77.5443283","Adichunchangiri Shopping Complex Adichunchangirishpgcplx Vjyngrb40 Vijaynagar, Attiguppe, Bangalore, 560040"
"The Family Doctor Malleswaram","hospital","13.0029689","77.5526666","10A Crossroad, bangalore, 560010"
"Venkat Charmalaya","hospital","12.9644231","77.5333324","7 Subbanna Garden Vijaynagar, Attiguppe, Bangalore, 560040"
"V Care Medical Systems P Ltd","hospital","12.9787049","77.5403581","S V Complex Magadi Main Vijaynagar, Magadi Road"
"Manasa Hospital","hospital","12.968821","77.5246297","189, Shiva Complex, Shivananda Nagar, Near Vijay Bank, Moodalapalya"
"Saikrupa Hospital For Women's and Surgical Centre","hospital","12.9691657","77.5351921","20th B Cross, Marenahalli Main Road, Vijayanagar"
"Cutis Academy of Cutaneous Sciences","hospital","12.9768117","77.5449094","4th Main, MRCR Layout, Vijayanagar, Behind Godrej Interio, Near Veeresh Theatre, Govindaraja Nagar Ward, MC Layout, Vijayanagar, Bangalore, 560040"
"Shreya Hearing Clinic","hospital","12.9621516","77.533401","Chord Road, Bangalore, 560040"
"Acura Speciality Hospital","hospital","12.9353208","77.6205504","435, Acura Hospital, 18th Main, 6th Block, Koramangala"
"Prasad Nethralaya","hospital","12.9603312","77.5300796","Widia Layout, Chandra Layout Main Road, Govindaraja Nagar Ward, Widia Layout, Vijayanagar, Bangalore, 560040"
"Vijayanagar Global Hospital","hospital","12.9717905","77.5372864","17th Cross, Near Main Bus Stand, M.C. Road, Vijayanagar, Bangalore, 560040"
"Blossom Infertility Center","hospital","12.9649703","77.5389842","1st Floor, Next to Sai Prasadam Hotel, 5th Main Rd, Hampi Nagar 2nd Stage, RPC Layout, Bangalore, 560040"
"Padmashree Nursing Home and Maternity Home","hospital","12.958321","77.5350434","1108/30 10Th Main 4Th Cross, Rpc Layout, Vijayanagar, Bangalore, 560040"
"N/A","hospital","12.9639998","77.5302683","1st Main Rd, Kaveri Layout, Govindaraja Nagar Ward, Anubhav Nagar, Vijayanagar, Bangalore, 560040p"
"Dhanush Hospital","hospital","12.9706209","77.5151893",", Byraveshwara Nagar, 2nd Main, Moodalapalya, Nagarabhavi Main Road, 2nd Block, Govindaraja Nagar Ward, Bangalore, 560072"
"S K Hospital, Bengaluru Urban","hospital","12.957572","77.5184436","No3 Ist Cross Janabharathi Road Nagarabhvi Circle"
"Green City Hospital, Bengaluru Urban","hospital","12.9062193","77.580682","#726, 17Th Cross, 6Th Phase, J.P. Nagar"
"The Homoeo World","hospital","12.9947201","77.5715879","2nd Cross Rd, Malleshwaram, Bangalore, 560003"
"Modern Family Doctor Pvt Ltd","hospital","12.9698405","77.5327211","1st Main Rd, Kaveri Layout, Govindaraja Nagar Ward, Anubhav Nagar, Vijayanagar,, Bangalore, 560040"
"Oxford Hospital","hospital","12.9312101","77.5756907","Mnr Arcade, Saraki Gate, Kanakapura Road, Saraki Gate, Bangalore, 560078"
"R R Hospital & Trauma Centre","hospital","12.9059465","77.5904192","8th cross, Gangadhar Nagar, 100 Feet Ring Road, J P Nagar,, Bangalore, 560078"
"M N Speciality Clinic","hospital","12.9039905","77.5859569","24th Main Rd, KR Layout, 1st Phase, JP Nagar, bangalore, 560078"
"Prashanth Hospital","hospital","12.9067129","77.6265085","Bommanahalli Circle, Hosur Main Road, Bangalore, 560068"
"Parimala Health Care","hospital","12.9009278","77.5986641","Bannerghatta Road, Near Kalyani Kala Mantap, Bilekahalli, 2nd Cross Rd,, Ram Shetty Nagar, Bilekahalli, Bangalore, 560076"
"Sri Ram Hospital","hospital","13.0096231","77.6924713","Nishvasaha Centre, Old Madras Main Road, Opposite-Traffic Police, Station, K R Puram, Bangalore, 560036"
"Vijay Diagnostic Centre","hospital","12.9458746","77.5877756","3rd Main,KEB Layout, BTM Layout  1, bangalore, 560029"
"Dr Lal PathLabs","hospital","12.924274","77.5680927","Ground Floor, 1st Phase, 2nd Stage, Oppo. Ias Colony Ground, BTM Layout, Mahadeshwara Nagar, Stage 2, BTM 2nd Stage, Bangalore, 560068"
"Welnext","hospital","12.9242869","77.6532853","H.S.R Agara Circle, Sarjapura, Outer Ring Rd, Agara Village, HSR Layout, Bangalore, 560102"
"Sri Sai Ram Hospital","hospital","12.8943049","77.5682821","No.6 J.C.Industrial Area, Yelechenahalli"
"Tamara Hospital & IVF Centre","hospital","13.0044499","77.5530755","Vidhya Vardhaka Sangha Road, bangalore, 560010"
"ChanRe Rheumatology and Immunology Center and Research","hospital","12.995573","77.5354215",""
"Anupama Hospital","hospital","12.9838763","77.4788534",""
"Deepa Hospital","hospital","13.0120509","77.6998816","#27, Old Madras Road"
"Manasa Hospital, Vijayanagar","hospital","12.9709463","77.5451059","No. 318, 6Th Main,2nd Cross,Vijayanagar"
"Agarahara Government Hospital","hospital","13.0957329","77.6273067","Agrahara Badavane, Bengaluru"
"Nagarathna Hospital","hospital","12.9056092","77.5426964","Dr. Vishnuvardhan Road, 560061"
"Ramana Rao's clinic","hospital","13.0130826","77.5761449",""
"Government Maternity Home","hospital","12.9983402","77.6200927",""
"Lucid Medical Diagnostics","hospital","12.9306876","77.5794541","3 Main Road, 560082"
"Cauvery Orthopaedic Centre","hospital","12.9984887","77.5504219","No. 408, 20Th Main, 1st Block,Opp Swathi Hotel, Woc Road, Rajajinagar"
"Apollo Bengaluru Cradle Limited, Jayanagar","hospital","12.9168014","77.5851878","No.25, 46th Cross, 5th Block, Jayanagar"
"Nethradhama Superspeciality Eye Hospital, Rajajinagar","hospital","12.997613","77.5509423","No.607/77, 1st Main, Dr.Rajkumar Road, Rajajinagar 2nd Block"
"NIMHANS - Ashwini Block","hospital","12.9397588","77.59445",""
"Sathya Sai Lake Side Ortho Hospital","hospital","13.0215807","77.7128053","Road , Casross Opposite Tc Palya Bus Store Old Madars Road"
"Comfort Multispeciality Hospital","hospital","12.9817167","77.6800412","SRR Arcade, C.V. Raman Nagar, Kaggadasapura, Bengaluru"
"National Institute of Mental Health and Neuro Sciences","hospital","12.9400669","77.5931597","Lakkasandra, Wilson Garden, Bangalore, Karnataka, India"
"NBRC(National Brain Research Center)","hospital","12.9404277","77.5988406",""
"Dr. Roshni's Tooth Planet Dental Clinic","hospital","12.9876335","77.6851595","DRDO Phase 2 Main Road, Bengaluru, 560048"
"Cambridge Hospital","hospital","12.9716236","77.6273835","No 18/17, Cambridge Road, Ulsoor"
"Respigen healthcare","hospital","12.9555357","77.5918347",""
"Doctor's diagnostics Centre","hospital","13.014746","77.6357881",""
"Hosmat Hospital","hospital","13.0080001","77.5837482",""
"Cloudnine Hospital Pvt. Ltd.","hospital","12.9597752","77.6569127","#115,Kodihalli,Old Airport Road"
"Subramanium Medicine Store","hospital","13.0090912","77.656317",""
"Chaya Super Speciality Hospital","hospital","13.0104342","77.6583242","6C - 335, 4Th C Main Road, 6Th Cross Ombr Layout Bhuvanagiri"
"Altius Hospital","hospital","12.9849537","77.5569222","6/63, 59Th Cross, 4Th Block, Rajajinagar Entrance, Mei Polytechnic, Rajajinagar"
"Bangalore Diabetes Hospital","hospital","12.9918415","77.5968531",""
"NU Hospitals","hospital","13.011845","77.5526061",""
"V. S. Achar Multispeciality Hospital","hospital","12.9472091","77.5966914","196, 10Th Cross, Wilson Gardens"
"Nature Cure Hospital","hospital","12.933223","77.5842632","No.1537/1, 9th Main Road, 3rd Block, Jayanagar"
"Government Hospital","hospital","12.966103","77.5549647",""
"Emergency Block , NIMHANS","hospital","12.9403849","77.5945391",""
"Usha Vikranth Diagnostic Center and Hospital","hospital","12.9138086","77.5273633",""
"Nethradhama Superspeciality Eye Hospital","hospital","12.9719805","77.6474011","# 66, Indiranagar Double Road, Hal 2nd Stage"
"Telerad RXDX Kadugodi","hospital","13.0028637","77.7569157",""
"Care Health","hospital","13.0552027","77.6028234","Bhuvaneswari Nagar, Hebbal Kempapura, Bengaluru"
"Sri Shankara Cancer Hospital And Research Centre (A Service Unit Of Sscf)","hospital","12.9542624","77.5709473","1st Cross, Shankarapuram, Basavanaagudi"
"Vathsalya Speciality Hospital","hospital","12.9939752","77.5391801","565 Iii Stage 4Th Block"
"Lakeside Medical Centre and Hospital","hospital","12.9878631","77.6177434",""
"Maruthi Hospital","hospital","12.9677607","77.5413282","No.14 , Maruthi Nagar , Near Maruthi Temple , Nagarbhavi Main Road"
"Aparna Hospital","hospital","12.9362087","77.616947",""
"Apollo Spectra Hospitals","hospital","12.9338175","77.6201615",""
"Sankeerthana Hospital and Fertility Center","hospital","12.9256013","77.6359638","No. 8, 1st Main Road 1st Block, Koramangala"
"Jayashree Multi Specilaity Hospital","hospital","12.881611","77.6260763","#25,26,27, B Block, Viswapriyanagara, Near Chowdeshwari Temple, Begur"
"Bangalore Prime Hospital","hospital","13.066842","77.6390545",""
"CyteCare","hospital","13.118638","77.6078781",""
"Shiva Vision Care","hospital","12.9366526","77.6277125",""
"Medical Center","hospital","13.0711049","77.5781394",""
"Sujatha Hospital","hospital","12.9781293","77.6372391",""
"Patil Hospital","hospital","13.011214","77.6979598","Sri Thimappa Complex, Old Madras Road, KR Puram, Below Syndicate Bank, Bangalore, 560036"
"The Eye Surgical Centre","hospital","12.9821954","77.5493143","1032, 5th Block Opp Ganesh Temple, Chor Road Rajajinagar"
"Omega Multispeciality Hospital","hospital","13.1001877","77.5813432","Yelahanka New Town, Bengaluru"
"NDR Hospital","hospital","13.0957808","77.5792872",""
"Venus Bone & Joint Centre","hospital","13.0665572","77.59647",""
"Lourdes High School","hospital","13.0182102","77.540004",""
"Boregowda Lingamma Hospital","hospital","13.016705","77.539386",""
"Kanva Hospital","hospital","13.0175606","77.5394308",""
"Kengeri Upanagara Government Hospital","hospital","12.9156896","77.4808065","NEAR COLLAGE, RAILWAY STATION"
"Yogananda Multi Speciality Hospital","hospital","12.9158516","77.5593919","Padmanabhanagar, Bengaluru"
"Dr. Agrawal's Eye Hospital","hospital","12.9998982","77.5501121","Laxmi, No.20, Shankarmutt Main Road"
"Ashok Hospital","hospital","12.9948905","77.5347984","No.65,N.H.C.S. Layout,3Road Stage,4Th Block,Basaveshwar Nagar,Kamalanagar Main Road"
"Balaji Hospital and Gastroenterology Center","hospital","12.9376087","77.5666429","#118, 5 Th Main , 7Th Cross, N R Colony , Bull Temple Road"
"Abhay Hospital","hospital","12.9517481","77.4939886","#43/2, 3Road Cross, OppositeSaroja Memorial School, Jnanajyothi Nagar, Ullal Main Road"
"Chaitanya Hospital","hospital","13.0237316","77.5941463","No 80, P&T Colony R T Nagar"
"Dr. B. Venkatasubbarao Memorial Hospital","hospital","12.9981979","77.568151","53, 7Th Cross , 4Th Main Road, Malleswaram"
"South City Hospital, Bengaluru Urban","hospital","12.9497745","77.5802779","#53/1 (45), Shalini,Susheela Road,Lalbagh Upparahalli ( Lalbagh West Gate)"
"Sri Sai Hospital, Bengaluru Urban","hospital","13.0370143","77.6238732","#978, 18Th Cross,14Th Main, 5Th Block, 1st Stage,H.B.R.Layout"
"Jupiter Hospital And Institute Of Vascular Surgery","hospital","12.9998457","77.5663653","28, 7Th Main 9Th Cross, Malleshwaram"
"Shreyas Hospital, Bengaluru Urban","hospital","12.9829857","77.5309655","No. 2/3, 5Th Main Shiva Complex, Kamakshipalya, Nagadimain Road , Opp Vishal Theatre"
"Ashirwad Hospital","hospital","13.0289685","77.6045479","# 125 1st Cross Bhuwaneshwarinagar Sultanpalya Main Road R T Nagar Post"
"N.D.R. Hospital","hospital","13.0965172","77.5787745","2118, 12Th Main RoadB Sector, 3Road Phase Yalahanka New Toen"
"Asha Kiran Children & Women Health Care Centre","hospital","13.0263529","77.5933929","# 9 80 Fet Road H M T Layout R T Nagar"
"Radha Maternity and Surgical Hospital","hospital","12.9690441","77.5688544","No.71, Mill Road, Cottonpet"
"Hitech Kidney Stone Hospital, Bengaluru Urban","hospital","12.9878104","77.5809833","No.6/7, Crescent Road Cross, Kumar Park East"
"Sri Dhavantari Ayurveda Hoapital","hospital","12.9822186","77.5599374","1033,4 Th Block Dr Rajdumar Road"
"Vaidyam Hospital","hospital","12.9845512","77.5528322","No. 851/D , 5Th Block , Rajajinagar , 60Th Cross"
"Suresh Hospital - Bangalore","hospital","12.9897745","77.5551014","723 / B Main E S I Hospital Raod, 3Road Block, Rajajinagar"
"Lakshmi Maternity Home","hospital","13.0058226","77.5694512","No. 95 and 96, Margosa Road, 15Th Cross, Malleswaram"
"Manjunatha Maternity Home and Surgical Centre","hospital","13.0077265","77.5696993","# 90/1, West Park Road,Between 17Th And 18Th Cross,Malleswaram"
"Samprathi Eye Hospital And Squint Centre","hospital","12.9932806","77.580691","# 111 Railway Parallel Road, 7 Th Cross, Kumara Park (W)"
"Shankara Nethralaya Eye Hospital","hospital","13.0089953","77.5406188","41-42/5 7Th Cross, Saraswathipuram, Nandini Layout, Main Road"
"Supra South City Hospital","hospital","12.8919509","77.5799654","No.2, Chandra Complex,J.P.Nagar, 7Th Phase,Puttenahalli,OppositeRbi Cly"
"ChanRe Rheumatology and Immunology Center and Research","hospital","12.9992083","77.550269","No. 414/65, 20th Main, West of Chord road, 1st Block, Rajajinagar, Bangalore"
"Chandana Hospital","hospital","12.9579894","77.5114394","54, 4th cross,4th main, NGEF Layout, Nrupathunganagar, Nagarabhavi, Bengaluru, Karnataka 560072"
"J M J Hospital, Bengaluru Urban","hospital","13.0398217","77.6230843","Nagarwara"
"Sri Krishna Hospital","hospital","12.9215013","77.5655432","No 154, 17 Th Main, 29 Th Cross, Near Bnm Institution"
"Malleswaram Eye Day Care Hospital - Bengalore","hospital","12.9966677","77.5716037","24/1 5Th Cross Malleswaram"
"Mahaveer Eye Hospital Private Limited","hospital","12.9933551","77.5729595","No.02, Sirur Park Road, Seshadripuram"
"Bilva Hospital","hospital","12.9989833","77.5802015","No.21,22,2nd Main Road, Palace Guttahalli"
"Nethradhama Superspeciality Eye Hospital, Jayanagar","hospital","12.9256932","77.5773127","256/14, Kanakapura Main Road, 7th Block, Jayanagar"
"Dr Agarwals Eye Hospital Ltd","hospital","12.9122295","77.5994906","C K Emerald, No-10,N S Palya Kaveriappa Industrial Area, Bannergatta Road"
"Sri Venkateshwara Hospitals","hospital","12.926471","77.6167399","#86 Hosur Main Road, Madivala"
"Nova Specialty Surgery Center, Koramangala","hospital","12.9339097","77.620208","Opus, 143, 1st Cross, 5th Block, Koramangala"
"C.S. Hospital","hospital","12.9118831","77.5528805","Dr.Gurappa Naidu Complex, Opposite Komarla Brigade Residency. Uttarahalli Main Road, Chikkalasandra"
"Sri Kalabyraveshwara Swamy Ayurvedic Medical College hospital","hospital","12.9650437","77.5435022","No.10, Pipeline Road, RPC Layout, Vijayanagar, 2nd Stage"
"Anugraha Hospital, Vijayanagar","hospital","12.9765645","77.5455876","No 18/2, 1st Cross, M.C. Layout, Vijayanagar"
"Apple Hospital","hospital","13.103924","77.5837862","No.32/1, Maruthi Complex,M S Nagar Bus Stop,Banaswadi Road"
"Amar Hospital","hospital","12.9711822","77.5781228","7Th Cross, Rangaswamy Temple Street"
"Retina Institute Of Karnataka","hospital","12.95727","77.5640827","# 122, 5th Main Road, Chamarajpet"
"The Venlakh Hospital","hospital","12.9572978","77.5644522","123, 5Th Main Road, Chamarajpet"
"Vishwabharathi Hospital Pvt. Ltd","hospital","12.9406698","77.5644596","No.10/4 & 10/5, 3Road Main Road, Hanumanthanagar"
"Sunetra Eye Hospital, Bengaluru Urban","hospital","12.9404548","77.5578493","No 519/34, 2nd Cross 10Th Main, Bsk 1st Stage Banashankari"
"Sri Vivekananda Sevashrama","hospital","12.9253299","77.5711893","No. 39, 8Th B Main Raod, Bsk 2nd Stage"
"Saraswathi Hospital","hospital","12.9276382","77.568896","# 39, 17Thc Cross, 8Thb Main, Banashankari Ii Stage"
"Narayana Multispeciality Hospital","hospital","12.9894936","77.7337486","Plot No.3 and 4, Sadaramangala Industrial Area, Near Itpl"
"National Institute of Mental Health and Neuro Sciences","hospital","12.9386321","77.5944105","Hosur Road"
"Netraspandana Healthcare and Research Pvt. Ltd","hospital","12.9291283","77.5461361","No.160, 1st Floor,Rashi Complex,2nd Stage,2nd Block,Near Bda Complex, Nagarabhavi"
"North City CT Scan","hospital","13.0945892","77.594104","No 150/3 Jnrt Mansion B.B. Road"
"Nu Trust","hospital","12.9176216","77.5550705","Bkf Chand , Nephro- Urology Centre, Ca - 6,15Th, Main Street, 11Th Cross, Padmanabhanagar"
"Padmavathi Hospital, Bengaluru Urban","hospital","12.9817311","77.5333714","67/1, H V R Complex Magadi Main Road Kanakapura"
"Panchamukhi Specialityu Hospital","hospital","12.9957177","77.5031644","# 1/3, Heggenanalli Main Road, Opposite Ganesh Temple, Near Peenya 2nd Stage, , Last Bus Stop"
"Sri Lakshmi Multi Speciality Hospital","hospital","12.9881868","77.5087273","No. 127/1, Sri Gandhanda Kaval, Sunkadakatte, Viswaneedam Post, Magadi Main Road"
"K C Raju Multi Speciality Hospital","hospital","13.0090828","77.6235594","Hennur Main Road Opposite Srirama Temple"
"Ring Road Hospital","hospital","12.9278657","77.5519297","#129, 1 Main Road, Kattriguppe, Banashankari Iii Stage"
"Vasan Eye Care Hospital, Bannergatta Road","hospital","12.8822813","77.5957945","Dsp Tower, No 40, 1st Floor Above Icici Bank Ltd"
"Varalakshmi Hospital","hospital","12.924624","77.6170966","No. 38/2, 2nd Main Road, Madiwala New Extension"
"Kala Hospital","hospital","13.0223669","77.5587304","1105, 5Th Cross,Kn Extension, Yeshwanthpur"
"Shekhar Hospital, Jayanagar","hospital","12.917589","77.5948906","#942, 28Th Main, 9Th Block,Jayanagar"
"Rajalakshmi Hospital","hospital","13.0842019","77.5308891","#21/1, Lakshmipura Main Road,Vidyaranyapura,Opposite Lakshmipura Lake"
"Vasan Eye Care Hospital, Sarakki","hospital","12.9103393","77.5732398","Plot No.2(A-2) A Type Bbmp No.57-64-2, Shivana Arcade"
"Lions Airport City Hospital","hospital","12.9551501","77.7051643","#103, Munnekolal, Verthur Road, Marthahalli Post"
"Mahanth Hospital","hospital","12.9079615","77.6235715","No-8, 1st Cross Ngr Layout Roopera Agrahara"
"Sunayana Eye Hospital","hospital","12.9255233","77.5937748","No.1156, 26th Main, 4th `T` Block, Jayanagar (Opposite 4th `T` BlockBus Depot)"
"Lakshmi Hospital, Ganganagar","hospital","13.024837","77.592089","402, 2nd Cross Judges Colony Ganganagar"
"Lokhande S Hospital","hospital","13.0186045","77.6479433","No. 3Ac 902, 3Road A Cross, 1st Block,9Th A Main, Kalyannagar"
"Dr. T.V.Ramesh Piles Hospital","hospital","13.0250141","77.5856289","1st Main Road, 7th Cross, Ganganagar"
"Dr Kamini Rao Hospital(A Unit Of Bacc Health Care Pvt Ltd)","hospital","12.9163994","77.5847384","909, 47Th Cross, 9Thmain, 5Th Block, Opposite Adarshapalace Apts And Near Raghavendra Matha, Jayanagar"
"HCG","hospital","12.9605309","77.592659","No 44-45/2, 2nd Cross, Raja Rammohan Roy Extension, Opposite Double Road"
"Dr Ambedkar Medical College Hospital","hospital","13.0218188","77.613084","Kadugondanahalli"
"Supriya Hospital, Bengaluru Urban","hospital","12.9929043","77.5588015","15/1 Iyappaswamy Templestraight Road"
"Manju Sree Hospital","hospital","13.0212406","77.6070739","91, Kavalbhyrasandra Dr Amc Road, Rt Nagar Post R T Nagar"
"Raj Mahal Vilas Hospital","hospital","13.0322819","77.5770459","No.138, Aec Layout, Sanjay Nagar"
"Devi Eye Hospital","hospital","12.9412109","77.6238987","#434, 18Th Main 80 Ft Road, 6Th Block, Opp Koramangala Bus Depot"
"Essential Hospital","hospital","12.974865","77.5096312","42, 7Th Block,Ii Stage,Nagarabhavi Ring Road,Near Bhojana Shale Hotel"
"Shree Vijayalakshmi Hospital and Trauma Centre","hospital","13.0373572","77.6409059","#3/666, Hennur Bande,Hennur Main Road, Kalayan Nagar Post,International Link Road"
"Kalasa Maternity Home","hospital","12.9548208","77.5672585","127/1, Bull Temple Road"
"Sidvin Hospital Pvt Ltd","hospital","12.982442","77.5493681","1031, 20Th Main Road, 5Th Block, Rajajinagar"
"Abhilash Hospital And Sara Rehabilitation Centre","hospital","12.9246384","77.5509238","#271, 5Th Block, 100 Feet Road, 3Road Phase, Banashankari"
"HCG, Koramangala","hospital","12.9343279","77.6228848","# 88, 17th, A Main, 2nd Cross, 5th Block, Koramangala"
"Ganesh Nursing Home, Bengaluru Urban","hospital","12.8957636","77.6330289","No.4, Achaiah Chetty Layout, Mekri Circle"
"Kavya Hospital","hospital","12.8987442","77.6263127","No 4/158, Hongasandra Begur Main Road Bdgur Main Road"
"Sg Hospital","hospital","12.9275311","77.5457901","30, 2nd Cross Anjaneya Nagar, 3Road Stage Banashankari"
"Place Guttahalli Maternity Home","hospital","12.9988238","77.5819892","Near Nti Qtrs, Jataka Stand, P.G.Halli, East"
"Phoenix Hospital, Bengaluru Urban","hospital","12.9608027","77.5911717","26, 1st Main, 2nd Cross, Ckc Garden Off Mission Road"
"Shreya Hospital, Bengaluru Rural","hospital","12.9215104","77.4832503","No 73, 3Road Main Road, Kengeri Satellite Town, Kengeri"
"Vasan Eye Care Hospital, Banaswadi","hospital","13.0241341","77.6335546","#205-4c, 4th Cross, 3 Road Block"
"Sri Annapoorneshwari Hospital","hospital","12.9255704","77.4857756","80 Ft. Road"
"Vasan Eye Care Hospital, R.T.Nagar","hospital","13.0251833","77.5920609","No.533, 108 Bus Stop, Ganganagar"
"Kims Hospital and Research Centre","hospital","12.9563016","77.5747874","K. R. Road, V. V. Puram"
"Karthik Hospital, Bengaluru Urban","hospital","12.9489406","77.5949925","56, 8Th Cross, Wilson Garden"
"Bangalore Kidney Stones Hospital","hospital","12.9670215","77.5892667","10, Vokkaligara Bhavana, Hudson Circle"
"Sree Lakshmi Hospital","hospital","12.9825937","77.6814736","21st Cross Kaggadasapura Main Road C V Raman Nagar"
"Abhaya Eye Hospital, Super Speciality Eye Care Centre","hospital","12.9271131","77.5471291","# 77, 100 Ft.Ring Road, B.S.K.3rd Stage, 5th Block"
"Mediscope Hospital Private Limited","hospital","12.9994472","77.6162584","Pillana Garden"
"Medi Derma Hospital","hospital","13.0555559","77.6517145","85 Byrathi, Hennur Main Road,Near Kothnur Police Station"
"Mathru Hospital - Bangalore","hospital","12.9110975","77.4806057","No-304, Kuvempu Street, Bazar Street , Kenegeri"
"Manjushree Speciality Hospital","hospital","12.9825845","77.6124926","22/70, St. John`S Road, (Opposite R B A N M S Ground)"
"Namratha Nursing And Maternity Home","hospital","13.0045747","77.5432728","158, 6Th Main Road 4Th Stage, Ii Phase West Of Chord Road"
"The Pulse Multi Speciality Hospital","hospital","12.9424801","77.5473283","5/81, 50 Feet Road, 20Th Main Road, Muneshwara Block, Girinagar"
"Popular Hospital","hospital","12.9514854","77.5703564","No. 16, 3Road Cross, Shankarpuram"
"Gavipuramguttahalli Maternity Home","hospital","12.9526505","77.5548633","Kempegoudanagara, Near Police Station, South"
"Ayurseva Hospital","hospital","13.0139247","77.6640775","No. 16, Hoysala Nagar, Maruti Complex, Ramamurthy Nagar Extension"
"Spine Care And Ortho Care Hospital","hospital","12.9745134","77.5493883","No-170, 12th, Ist Main, Near Anjaneya Temple, Opposite Karnatakaa Bank"
"Vijayashree Hospitals","hospital","12.8579673","77.5892687","#3, Gottigere, Bannerghatta Main Road,Near Gottigere Bus Stand"
"Tanmay Hospital","hospital","12.9733764","77.5474034","66 B/7, Pipe Line Road, Vijayanagara"
"Aayug Multi Speciality Hospital","hospital","12.9651587","77.7150508","#477, I Main 'B' Block, Aecs Layout,,Kundalahalli"
"MGA Hospital","hospital","12.9568547","77.7002262","96,Varthur Main Road, Marathahalli"
"Blossom Hospital","hospital","12.8705439","77.6595353","Bommanahalli, Hosur Road"
"Bhagavathi Multi Speciality Hospital","hospital","12.9160636","77.6308219","L 168, Sector - 6, Ring Road, Hsr Layout"
"Sri Sai Ram Hospital - Bangalore","hospital","12.9144587","77.6003156","# 33, Bannerghatta Road (Service Road), B.T.M.Layout B.T.M. Layout 2nd Stage"
"Susheel Hospital","hospital","12.9645006","77.5427189","No. 1869, 5Th Main, 13Th Cross, R.P.C. Lay Out, Vijayanagar"
"Dhanush Hospital","hospital","12.9654318","77.52312","#63, 2nd Main, Byraveshwara Nagar,2nd Main , Nagarbhavi Main Road"
"Sadhana Eye Hospital, Bengaluru Urban","hospital","12.970023","77.6307987","No. 114, 5Th Cross, Sai Baba Temple Road, Cambridge Layout, Ulsoor"
"Av Hospital","hospital","12.938853","77.5786096","9, Patalamma Temple Street, Basavanagudi"
"Balaji Hospital, K.H. Ranganath Colony","hospital","12.9632506","77.5602901","No. 40/1, J.J.R. Nagar Main Road, K.H. Ranganath Colony, Behind Sadarshini Hotel"
"Banasawadi Hospital","hospital","13.0205082","77.6509675","904, 1st Block, Hrbr Layout (Near Overhead Water Tank, Outer Ring Road) Bansawadi"
"Bangalore Eye Hospital And Retina Centre","hospital","13.0221036","77.6387729","#4 Ac-426,4Thcross,2nd Block, Oop.Kalyana Nagar,Telephone Exchange"
"Belaku Eye Hospital","hospital","12.9110766","77.4800451","#709, 1st Cross, Ring Road, Kengeri Upanagar,Behind Vijaya Bank"
"Bhavatprabhu Hospitals Pvt Limited","hospital","12.9670615","77.5903161","No.2 , 8Th A Main,S.R.Nagar,Near Corporation Offices"
"Nikad Ortho Centre","hospital","12.975802","77.6184806","No.1 Haudin Road, Off Ulsoor Road"
"Raksha Multispeciality Hospital","hospital","13.0195733","77.5419559","# 141/142, 1st Main, Krishnandanagar, Khb Colony"
"Cambridge Hospital","hospital","13.0195955","77.5419813","18/17,Cambridge Road,Ulsoor"
"Prasad Hospital, Bengaluru Urban","hospital","13.0983472","77.5773677","2069/2074, 16Th B Cross, (Near Mother Dairy Cross), Yelahanka New Town"
"Saranalaya Hospital","hospital","13.1215236","77.6126106","Near Bagalur Cross Signal,International Airport Main Road,Yelahanka"
"Azad Nagar Maternity Home","hospital","12.9559644","77.5485635","Kasturabanagar, Mysore Road , South"
"Gunasheela Surgical and Maternity Hospital","hospital","12.9403012","77.5764705","1,Dewan N, Madhava Rao Road, Basavanagudi"
"Excel Care Hospital","hospital","12.9207314","77.5736019","#3/2, 27Th Cross, Banashankari 2nd Stage,Near Brigade Software Park"
"Vasan Eye Care Hospital, Jayanagar","hospital","12.9292015","77.5819811","No 28&29, 7Th Main Diagnal Road, Jayanagar 4Th Blook"
"Hi Tech Kidney Stone Hospital","hospital","12.9271389","77.579028","#240, 32nd Cross, 7 Th Block"
"Dr. Vidyananda's Surgery and Dia Centre","hospital","12.9242515","77.573217","2269, 22nd Cross K R Road, K.R.Road"
"Srushti Hospital, Bengaluru Rural","hospital","12.8981572","77.6207364","124, Kanakapura Main Road, Jayanagara 7Th Block, Bangalore"
"Parimala Speciality Hospital","hospital","12.9004567","77.6005474","12/13, Bilekahalli, Bannerghatta Road"
"Banashankari Hospital","hospital","12.8443653","77.583809","Weavers Colony Main Road, Bannerghatta Road"
"R K Hospital, Bengaluru Urban","hospital","13.0138123","77.6354731","No. 31, Kammanahalli Main Road Near Venkateswara Ent"
"Prasad Eye Hospital, Bengaluru Urban","hospital","12.9356703","77.6079905","#11, Krishna Nagar Industrial Layout, D.R.C.Post,Near Christ College,Hosur"
"Unity Lifline Hospital Pvt Ltd","hospital","12.9819768","77.5108275","No 193, So Feet Road, 2nd Block 2nd Stage"
"J.P.Nursing Home","hospital","13.0098352","77.5384723","#4,Sfhs,Next To Nandini Layout"
"North Side Health Centre","hospital","13.0267995","77.5870813","Cbi Road, (10Th Cross) Between 2 nd & 3 nd Main Ganganagar"
"Amrutha Hospital","hospital","13.0657486","77.5992653","No. 1, Near Water Tank Jakkur Main Road Amruthahalli"
"Unity Hospital, Bengaluru Urban","hospital","12.910823","77.5207892","No.886, Beml Layout,Near Police Station Main Road,Rajarajeshwari Nagar"
"Dr Chaitanyas Dental Care & Implant Centre","hospital","12.9675989","77.6565533","Ist Floor, Lic Colony Main Road, Jeevan Bhima Nagar"
"Kareem E.N.T and Multispeciality Centre","hospital","12.9188948","77.6058905","No.53, 3Road Main Road, Opposite To Maruti Layout, B.T.M Layout 1st Stage"
"HK Hospital","hospital","12.9085981","77.4784157","106/2&135 - Mysore Road Kengeri"
"Chinmaya Narayana Super Specialty Centre","hospital","12.9777106","77.6459773","C.M.H.Road, Indiranagar, 2nd Stage"
"Jyothi The Lasik Vision Centre","hospital","12.9496114","77.5790786","37, M.N. Krishna Rao Road, Opp Lalbagh West Gate"
"S.S.G. Hospital","hospital","12.9868695","77.4794832","116/2, Herohalli, Anjananagar, Opposite Petrol Bunk"
"Bengaluru West Lions Hospital","hospital","12.9563042","77.5830996","J.C.Road"
"Vijayanagar Hospital","hospital","12.9716291","77.5371969","17th Cross, Near Main Bus Stand, MC Road, Vijayanagar"
"Abhinava Eye Hospital","hospital","12.9550181","77.5683897","No. 36, Vagdevi, Shankara Park, Opposite Jnanodaya School"
"North Star Maternity and Nursing Home","hospital","12.9067079","77.5849275","No. 4, Sarakki Industrial Estate, 3Road Phase, J.P.Nagar, Bannerghatta Road"
"Punarjyoti Eye Hospital, Bengaluru Urban","hospital","12.9685305","77.5843965","No 37, Next To Ganesha Temple Near Cubbonpet Market Near Cubbonpet Market"
"Sundar Hospital","hospital","13.0080166","77.6221479","1 & 2, Hennur Road Cross, Lingarajpuram,Below Railway Flyover"
"Sri Ramakrishna Hospital, Bengaluru Urban","hospital","13.0121705","77.6961802","Opposite Syndicate Bank, Old Madras Road, Krihnarjapuram"
"Sri Venkateshwara Eye Hospital","hospital","13.0423919","77.5136653","No. 15, Drls Plaza, 1st Floor, Nh-4, Above Andhra Bank, T. Dasarahalli"
"V Care Hospital","hospital","13.015884","77.5973475","No 29, 9Th Cross Adi Kabir Ashram Road,H.D Devegowda Road"
"A.M. Hospital","hospital","12.9601022","77.5315556","No.20/1, 2nd Cross, Widia Layout, Chandra Layout Main Road,Vijayanagar"
"Divya Drishti Eye Hospital, Vijayanagar","hospital","12.9586907","77.5352668","#966/ 22, Service Road, RPC Layout, Vijayanagar, Opposite Syndicate Bank"
"Shridevi Hospital, Bengaluru Urban","hospital","12.9617045","77.5217172","No-14, Maruthi Nagar, Nagarabhavi Main Road"
"Srinivasa Eye Hospital","hospital","13.0147224","77.6515616","No.60, Near Banaswadi Bus Stop, Banaswadi Main Road"
"Spandana Hospital And Medical Centre","hospital","13.0112166","77.6743939","Ramamurthynagar"
"Sreeniwasa Hospital","hospital","12.9732706","77.5725357","No. 12, Park Road, Bale Peth"
"Ashraya Medinova Pvt Ltd","hospital","12.988865","77.5078006","Magadi Main Road, Sunkadakatte"
"Magadi Road Maternity Home","hospital","12.9741253","77.561823","2nd Cross, Magadi Road"
"Pristine Hospital","hospital","12.9980009","77.5432779","No.877, Modi Hospital Road, West of Chord Road, II Stage Extension"
"Dr Zamindar's Micro Surgical Eye Centre","hospital","13.0021978","77.6329015","7Th B Cross, 1st Floor Banaswadi Road Jai Bharath Nagar"
"K.T.G. Hospital","hospital","13.0004769","77.5054027","Ktg Educational Campus, Sy No. 93, Srigandadakaval, Sunkadakatte Road, Vishwaneedam Post"
"Vasan Eye Care Hospital","hospital","12.8980516","77.6339279","Sri Murthy Complex, No.43, Garvey Bhav Palya Hongasandra Village Begur, Hosur Main Road Bommanahalli, Hobli"
"Health Cottage Hospital","hospital","12.9709143","77.6321116","#289.1 Cross, Cambridge Layout, Halasuru, Near Sai Baba Temple"
"Samastha Hospitals Pvt Ltd","hospital","12.89708","77.5473364","No.4, Sagar Complex,Gopalakrishna Layout,Vasanthapura Main Road,Subramanyapura Post,Uttarahalli Hobli"
"Poornima Hospital","hospital","13.0263344","77.595128","#200/A, Hmt Layout, Karthik Complex, Dinnur Main Road, R.T. Nagar"
"Dr.Zamindar Microsurgical Eye Centre","hospital","13.0178594","77.6547577","No.1013, 1st Block, 3 Road Cross, Hrbr Layout, Kalyan Nagar"
"Good Shepherd Hospital","hospital","13.0328036","77.633289","#1,9 Cross 9 Main Hennur Cross, Kalyan Nagar Post"
"Dr.Agarwal Eye Hospital, Frazer Town, Bangalore","hospital","12.9960196","77.6128413","No.33, Coles Road,Frazer Town"
"Mamta Hospital, Bengaluru Rural","hospital","13.0377564","77.5744454","12, D Rajgopal Road, Next To Food World, Nagashettyhalli, Sanjaynagar"
"S. J. Hospital","hospital","13.0360827","77.575065","No.2, Ngef Layout, Sanjaynagar Main Road"
"Republic Hospital","hospital","12.964162","77.5982255","No. 5, Langford Gardens, Near Richmond Circle"
"R.R. Hospital and Trauma Centre","hospital","12.9074269","77.5716318","11/2 8Th Cross, Gangadhar Nagar 100 Ring Road, J.P Nagar Post"
"Suresh Hospital, Bengaluru Urban","hospital","13.0080397","77.6971089","37/, 1st Cross, Devasandra Main Road, K.R.Puram"
"Sri Ram Netralaya and Surgical Centre","hospital","13.0088071","77.6948659","2 1st Floor, Kr Purav"
"Patil Hospital, Bengaluru Urban","hospital","13.0090854","77.6969567","No. 42-B1, Below Synicate Bank, Sri Thimmappa Complex, Old Madras Road, Krishnarajapuram"
"Sri Sai Eye Hospital","hospital","13.011968","77.6659168","#311, 4B Cross, R.M. Nagar Main Road, Kasthuri Nagar"
"Sri Ram Speciality Hospital","hospital","12.9543777","77.6209764","No.162, 4Th Main, Opposite Post Office, Viveknagar, 20Yds, Viveknagar Bus Stand"
"Zion Hospital And Research Centre Pvt.Ltd.","hospital","13.0149675","77.6354957","No.1, 1 Cross Rananurthy Road"
"Jai Maruthi Hospital","hospital","13.0068811","77.5055636","208, 210, Hegganahalli Main Road, Near Peenya 2nd Stage, Hegganahalli"
"Institute Of Nephro Urology hospital","hospital","12.9619528","77.5728562","Victoria Hospital Campus"
"Well Spring hospital","hospital","12.9425676","77.6224349","Koramangala"
"Aaroyha Mandir Hospital","hospital","13.0105038","77.5502452","Bengaluru Urban"
"Punya Hospital, Bengaluru Urban","hospital","12.9862161","77.5374853","# 52 /10 80 Ft Road, Khb Colony Basaveshwaranagar"
"Vijaya Hospital, Bengaluru Urban","hospital","12.9418827","77.48376","4,Kirloskar Colony, Basaveshwaranagar"
"Sandhyashree Hospital","hospital","12.9761802","77.5261763","No. 8, 60Ft. Road, Pattegara Palya, Vijayanagar"
"Dr. Sailaja's Super Speciality Eye Hospital","hospital","13.0276736","77.6614188","No.21,22,1st Floor,Horamavu Main Road"
"Hillside Hospital","hospital","12.9162753","77.5589544","No. 113, 4Th Cross, R. K. Layout, Padmanabhanagar"
"Pd Hinduja Sindhi Hospital","hospital","12.9646359","77.5926509","Sindhi Hospital Road Sampangiramnagar S R Nagar"
"Sri Ranga Arogyadhama","hospital","12.9986239","77.542782","1078 11Th Main 9Th Cross Above Punjab National Bank Mahalakshmipura"
"Brinda Hospital","hospital","12.978053","77.5115959","No.4, 5Th Block,2nd Stage Nagarabhavi"
"Sankalpa Hospital","hospital","12.95119","77.4918039","34/1, Ta.Ra.Su. Circla Yadavagiri"
"Deepashri Hospital","hospital","12.9705902","77.5108503","No. 86, 2nd Main,16Th D Cross,Malagala,Inner Ring Road,Underpass, Nagarabhavi 2nd Stag"
"Rotary Eye Hospital (A Unit Of Bangalore North Rotary Trust)","hospital","12.9817233","77.5549364","10Th, A Main, 68Th Cross, 5Th Block, Rajajinagar Near Bhasyam Circle"
"Acharya Tulsi Jain Hospital","hospital","13.0218344","77.5567093","No. 22/21, 6Th Cross, K N Extn, Yeshwanth Pur"
"Get Well Hospital","hospital","12.9526616","77.61503","#20, 7Th Cross Rosegarden, Neelasandra"
"Premier Hospital","hospital","13.0241863","77.5960574","No.2, Ex-Servicemen Colony, 5Th Cross, Dinnur Main Road, R.T.Nagar"
"Gurukripa Hospital and Health Care Centre","hospital","13.0001802","77.5461146","No - 30,1st Cross, Opp Geleyara Balaga Bus Stop,Mahalakshmipuram,Banglore"
"Avian Medicare and Research Centre","hospital","13.0269276","77.6227882","Lmc 1210 &1211 ,1st Main, 1st Stage, 3Road Block Hbr Layout"
"Vinayaka Health Care and Maternity Home","hospital","12.8919999","77.6257829","13/29,Prathik Complexhongaasandra, Begur Road"
"Little Flower Hospital","hospital","13.0113204","77.6771966","No. 101, Tc Palya Road,Raghavendra Nagar,Ram Murthy Nagar Extension"
"Venkateswara Hospital, Bengaluru Urban","hospital","12.9543465","77.5755649","506, Aswathankatte Road V V Puram"
"Sai Baba Hospital","hospital","13.0093599","77.5222108","No.12, Laggere Main Road, Laggere, Bengaluru"
"Metro Hospital, Bengaluru Rural","hospital","12.8914666","77.5612113","No. 21/3 Vasanthpur Main Road Konanakunte Cross"
"Madhu Hospital, Bengaluru Urban","hospital","12.9783164","77.5429603","58, M. Muniyappa Complex Magadi Main Road, Agrahara Dasarahalli,"
"Al- Habeeb Hospital","hospital","13.0236062","77.6196139","5, Arabic College Main Road, Banglore"
"Santhigiri Ayurveda and Siddha Hospital, Bengaluru Urban","hospital","12.9439008","77.6065864","No.2/2, ARS Mansion, New Mico Factory Road, Opposite GovernmentHigh School, Adugodi"
"Padmashree Diagnostics","hospital","12.9745983","77.5436792",""
"Venus MultiSpeciality Hospital","hospital","12.9721779","77.6807872",""
"Roopena Agrahara Government Hospital","hospital","12.9102142","77.6244654","3rd Main Rd, NGR Layout, Roopena Agrahara, Bommanahalli"
"Government Hospital, Gunjur","hospital","12.922327","77.736038","Gunjur"
"Thippenalli Government Hospital","hospital","13.031132","77.483923","Thippenahalli"
"Laggere Government Hospital","hospital","13.009817","77.5231852","Peenya Post, Muneshwara Badavane"
"Seegehalli Government Hospital","hospital","13.0164321","77.7169887","Seegehalli, Virgonagara Post"
"Ullalu Government Hospital","hospital","12.9629127","77.4751834","Sir M Vishweshwaraiah Layout 6th Block, Ullal Uppanagar"
"K.C. General Hospital","hospital","12.993382","77.5694167","K.C. General Hospital, Srirampura"
"NELAMAHESHWARI Government Hospital","hospital","13.049152","77.510442","Nelamaheshwarinagar T DASARAHALLI"
"Sai Hospital","hospital","13.0701337","77.6329103","Sri Balaji Krupa Layout"
"Sree Ranga Hospital","hospital","12.9358669","77.4927128","Mutharayana Nagar, Gnana Bharathi, Bengaluru"
"Cure Hospital","hospital","13.0324318","77.6085263","48/1, KHB Colony Main Rd, Sultanpalya, Hebbal, Bengaluru"
"Yashas Neurocare","hospital","12.9853993","77.5454024",""
"Focus Diagnostic Center","hospital","12.9870634","77.549951",""
"Vittal Eye HOspital","hospital","12.931298","77.5412566",""
"naveen clinc","hospital","13.0413777","77.5050224",""
"Chamundi Hi Tech Hospital","hospital","12.9240924","77.6177848","Bengaluru, 560068"
"Little Flower Hospital","hospital","12.9807257","77.6823734","Nagappareddy Layout, Kaggadasapura, Bengaluru"
"NMPC Hospital","hospital","13.006205","77.7004289","Ayyappa Nagar, Krishnarajapura, Bengaluru"
"R R Hospital","hospital","13.0082031","77.697197","Devasandra Main Road, Krishnarajapura, Bengaluru"
"Jeevan Hospital","hospital","12.9901305","77.6713322","Udayanagar Extension, Mahadevapura, Bengaluru"
"Vicky Family Life","hospital","13.0031618","77.7059531","Ayyappa Nagar, Krishnarajapura, Bengaluru"
"Vedam Ayurveda Multi Speciality Hospital","hospital","12.9946786","77.6709989","Udaya Nagar, Mahadevapura, Bengaluru"
"Stroke Treatment Paralysis","hospital","13.0239995","77.6585299","Horamavu, Near Banaswadi, Bengaluru"
"Geriatric Hospitals","hospital","13.0283977","77.6599575","Banaswadi, Bengaluru"
"Health Plus Multi Speciality Hospital","hospital","13.0219523","77.6994046","Sunshine Layout, Krishnarajapura, Bengaluru"
"Pragathi Piles Hospital","hospital","12.9966313","77.671863","Udaya Nagar, Bengaluru"
"Mahaveer Hospitals","hospital","12.9895049","77.6741439","Udaya Nagar, Mahadevapura, Bengaluru"
"Eshawar HospItal","hospital","13.033219","77.6747693","Punyabhoomi Layout, Kalkere, Bengaluru"
"Medihope Super Specialty Hospital","hospital","12.973637","77.675186","Malleshpalya, New Tippasandra, Bengaluru"
"Cure N Care Hospital","hospital","12.989869","77.676589","Udaya Nagar, Mahadevapura, Bengaluru"
"Sad Bydya Shala Ayurvedic Hospital","hospital","13.0106539","77.6969464","V B Layout, Krishnarajapura, Bengaluru"
"Sri Lakshmi Super Speciality Hospital","hospital","13.011115","77.697361","Krishnarajapura, Bengaluru"
"Kids Health Link","hospital","13.0031938","77.7128759","Surya Layout, Ayyappa Nagar, Krishnarajapura, Bengaluru"
"Prakruti Hospital","hospital","12.991561","77.6757833","Udaya Nagar, Bengaluru"
"Amrutha Healthcare","hospital","13.0042616","77.7114153","Ayyappa Nagar, Krishnarajapura, Bengaluru"
"Kamadhenu Hospital","hospital","12.975501","77.534972","Govindarajanagar, Bengaluru"
"Dr. Rajesh Hospitals Eye and Dental","hospital","12.9688989","77.6422131","Indiranagar, Bengaluru"
"OJUS Multi Speciality Hospital","hospital","12.957269","77.653945","Kaveri Nagar, Murgesh Pallya, Bengaluru"
"Benaka Hospital","hospital","12.9835824","77.5289448","Govindaraja Nagar Ward, Priyadarshini Layout, Kamakshipalya, Bengaluru"
"Goverment Hospital, Hosahalli","hospital","12.9744928","77.5342045","Stage 2, Vijayanagar, Bengaluru"
"Jhon's Medical Hospital","hospital","12.9635299","77.6662889","Jyothi Nagar, Bengaluru"
"Vijaya Hospital","hospital","12.96767","77.5226459","Govindaraja Nagar Ward, Kalyan Nagar, Vijayanagar, Bengaluru"
"Government Hospital","hospital","12.9780731","77.5251934","Govindaraja Nagar Ward, Pattegarhpalya, Vijayanagar, Bengaluru"
"Sriprasad Ayurveda","hospital","12.9734087","77.5462808","Hoshalli Extension, Vijayanagar, Bengaluru"
"Vidya Eye Hospital","hospital","12.9707429","77.5377684","Near Vijayanagar Police Station, Vijaya Nagar, Bengaluru"
"Sai Baba Hospital","hospital","12.9698194","77.6317472","Someshvarapura Layout, Jogupalya, Bengaluru"
"Shree Sai Speciality Hospital","hospital","12.9555948","77.6418006","Amarjyoti Layout, Domlur, Bengaluru"
"Shree Dhanvantari Ayurveda Hospital","hospital","12.9615606","77.5222312","Maruthi Nagar, Attiguppe, Bengaluru"
"Srinivasam Cancer Care Multi Speciality Hospital","hospital","12.961509","77.523151","Netravati Road, Maruthi Nagar, Bengaluru"
"Magdum Hospital","hospital","12.9589495","77.6603768","Near Rajeshwari Theatre, Murgesh Pallya, Bengaluru"
"Athoz Hospitals","hospital","12.9673428","77.6424996","Indiranagar, Bengaluru"
"G.R. Hospital","hospital","12.9802303","77.5548818","Rajajinagar, Bengaluru"
"Sneha Horizon Hospital","hospital","12.9754301","77.5358001","Nagarabhavi Main Road, Govindaraja Nagar Ward, Vijayanagar, Bengaluru"
"Jagjeevanram Hospital","hospital","12.968292","77.524492","Nagarabavi Main Road, Mudalapalya, Vijayanagar, Bengaluru"
"Kangroo Hospital","hospital","12.974339","77.542325","CHBS Layout, Vijayanagar, Bengaluru"
"Abhinav Hospital","hospital","12.9757486","77.553782","Rajajinagar, Bengaluru"
"Suhusannidhi Hospital","hospital","12.969102","77.534951","Govindaraja Nagar Ward, PF Layout, Vijayanagar, Bengaluru"
"Abivrud Cancer Care & Research Centre","hospital","12.963967","77.4973049","Vishweshwaraiah Layout, Annapurneshwari Nagar, Bengaluru"
"Panchsheela Nagar Hospital","hospital","12.9745497","77.5208943","Govindaraja Nagar Ward, Panchasheel Nagar, Vijayanagar, Bengaluru"
"ESIC Hospital","hospital","12.9693009","77.6317545","Someshvarapura Layout, Jogupalya, Bengaluru"
"Sai Ortho and Dental Centre","hospital","12.9698191","77.5360801","CHBS Layout, MC Layout, Vijayanagar, Bengaluru"
"Ammashrees Hospital","hospital","12.9794315","77.5441641","Agrahara Dasarahalli, Rajajinagar, Bengaluru"
"Lohitha Hospital","hospital","12.963951","77.64308","Kodihalli, Bengaluru"
"Government Hospital","hospital","12.9639829","77.5188899","Govindrajanagar, Anubhav Nagar, Mudalapalya, Vijayanagar, Bengaluru"
"Revathi Hospital","hospital","12.9679971","77.5015759","Radhakrishna Main Road, Mines &,Geology Layout, Mallathahalli, Bengaluru"
"Shanthakumari Hospital","hospital","12.9637162","77.5188263","Govindaraja Nagar Ward, Garden Villas, Vijayanagar, Bengaluru"
"Bengaluru Child Neurology and Rehabilitaion Centre","hospital","12.9735574","77.5461246","Hans Complex, Manuvana, Vijayanagar, Bengaluru"
"Sumati Hospital","hospital","12.976379","77.524439","Srinivasnagar, Amarajyothi Nagar, Vijayanagar, Bengaluru"
"Dr. Hemant Agrawal","hospital","12.9583212","77.659636","Konena Agrahara, Murgesh Pallya, Bengaluru"
"Dr. Nothesh Child Specialist","hospital","12.975423","77.540659","Near SBI, Vijayanagar, Bengaluru"
"Swasthya Hospitals","hospital","12.9544981","77.6401572","Amarjyoti Layout, Domlur, Bengaluru"
"Miracle Hopital","hospital","12.958861","77.654322","Kaveri Nagar, Murgesh Pallya, Bengaluru"
"Sastry Memorial Hospital","hospital","12.9698787","77.5332834","Vijaya Nagar, Bengaluru"
"Hospitec Multispeciality Hospital","hospital","12.8859649","77.6489078","AECS Layout, Kudlu"
"Sri Venkateswara Hospital","hospital","12.9056165","77.6122688","EWS Colony, BTM Layout, Bengaluru"
"Rajashri Grandhim Hospitals","hospital","12.895426","77.607662","Vijaya Bank Layout, Bilekahalli, Bengaluru"
"Goldage Hospital","hospital","12.8908362","77.6040715","Duo Heights Layout, Devarachiknahalli, Bengaluru"
"Vinayaka Hospital","hospital","12.93753","77.549675","Srinivasnagar, Banashankari, Bengaluru"
"Unani Hospital","hospital","12.9633185","77.5790145","Near Jamia Masjid, NR Road, Bengaluru"
"Rahul Maternity & Child Health Centre","hospital","12.9596227","77.6146819","Austin Town, Neelasandra, Bengaluru"
"Bangaluru Unani Hospital","hospital","12.9405198","77.5794387","Basavanagudi, Bengaluru"
"Medcare Hospital","hospital","12.953049","77.574203","S.S. Temple Street, V V Puram, Bengaluru"
"Sumanjara Hospital","hospital","12.9417439","77.5601782","50 Feet Road, Basavanagadi, Banashankari, Bengaluru"
"Corporation Hospital","hospital","12.961345","77.560893","Mahaveer Arcade, Sirsi Road, Chamrajpet, Bengaluru"
"Mitralaya Hospital","hospital","12.945591","77.5712865","DVG Road, Gandhi Bazaar, Basavanagudi, Bengaluru"
"People Tree Hospitals","hospital","12.942076","77.553598","Dasarhalli, Srinagar, Banashankari, Bengaluru"
"Apollo Specialty Hospital","hospital","12.936459","77.584422","Jaya Nagar East, Jayanagar, Bengaluru"
"Government Hospital","hospital","12.9609494","77.5613939","Sirsi Road, Chamrajpet, Bengaluru"
"Verna Hospital","hospital","12.940404","77.5580361","SBM Colony, Banashankari, Bengaluru"
"Government Hospital, Banglore","hospital","12.9587464","77.5573456","Ramachandra Agrahara, Azad Nagar, Bengaluru"
"Royan Maternity & Child Welfare Centre","hospital","12.960311","77.568274","Kamalanagar, Chamrajpet, Bengaluru"
"Alisa Eye Hospital","hospital","12.9652304","77.6104334","Campbell Road, Bangalore"
"Shekhar Hospital","hospital","12.945944","77.567404","Bull Temple Road, Hanumanthnagar, Bengaluru"
"Government Hospital","hospital","12.949104","77.563226","RK Mutt Layout, Kempegowda Nagar, Bengaluru"
"Jeevini Sarvodaya Hospital","hospital","12.9415883","77.5641917","Hanumanthnagar, Banashankari, Bengaluru"
"Mahaveer Ortho Care Speciality Centre","hospital","12.9569684","77.5695045","Shankar Mutt Road, Chikkanna Garden, Shankarapura, Bengaluru"
"Raghavendra Hospital","hospital","12.938787","77.554296","Banashankari, Bengaluru"
"Apaara Multi Speciality","hospital","12.938453","77.551329","Srinivasnagar, Banashankari, Bengaluru"
"Khincha Orthopaedic Centre","hospital","12.939882","77.573989","Krishna Rajendra Road, Basavanagudi, Bengaluru"
"Parameshwari Hospital","hospital","12.948971","77.563543","RK Mutt Layout, Gavipura, Kempegowda Nagar, Bengaluru"
"Drishti Nethralaya","hospital","12.9422541","77.5506328","Giri Nagar, Banashankari, Bengaluru"
"Furtde Hospital","hospital","12.9654649","77.5894756","Sampangi Rama Nagar, Bengaluru"
"Manavarthapet Pregnancy Hospital","hospital","12.9702549","77.5734571","Santhusapet, Bengaluru"
"Trinity Hospital and Heart Foundation","hospital","12.9434996","77.5796583","Basavanagudi, Bengaluru"
"Spandana Heart Centre","hospital","12.957222","77.566486","Chamrajpet, Bengaluru"
"Shas Eye Care","hospital","12.960296","77.614714","Victoria Layout, Bengaluru"
"Matha Pitha Hospital","hospital","12.9420276","77.575634","M N Krishna Rao Park Road, Basavanagudi, Bengaluru"
"ESI Hospital","hospital","12.972126","77.573351","JM Road, Upparpete, Bengaluru"
"Herige Hospital","hospital","12.960972","77.5609696","Chamrajpet, Bengaluru"
"Gleneagles Global Hospitals","hospital","12.9654497","77.5999044","Richmond Road, Shanthala Nagar, Ashok Nagar, Bengaluru"
"Punarjyoti Eye Hospital","hospital","12.9658901","77.589928","Ashwath Nagar, Sampangi Rama Nagara, Bengaluru"
"Swastik Eye Hospital","hospital","12.9479647","77.5696395","Vanivilas Road, Gandhi Bazaar, Basavanagudi, Bengaluru"
"Dave Gray Hospital","hospital","12.9458294","77.5799015","Rashtriya Vidyalaya Road, Basavanagudi, Bengaluru"
"Dr. Rudrappa's Hospital","hospital","12.9650303","77.5954946","Sampangi Rama Nagara, Bengaluru"
"Aveksha Hospital","hospital","13.081777","77.54091","Varadharaja Nagar, Varadarajaswamy Layout, Singapura, Bengaluru"
"Shishuka Children's Speciality Hospital","hospital","13.0193799","77.6535352","HRBR Layout, Banaswadi, Bengaluru"
"Skin Remediez","hospital","13.0091103","77.6579493","Lal Bahadur Nagar, Kasturi Nagar, Bengaluru"
"Navya Hospital","hospital","13.0524836","77.6120857","Mariyannapalya, Thanisandra, Bengaluru"
"Ovum Birthing Centre","hospital","13.0201491","77.6516628","HRBR Layout, Kalyan Nagar, Bengaluru"
"Icon Hospital","hospital","13.0528211","77.6041042","Hebbal Kempapura, Bengaluru"
"Medicure Hospital","hospital","13.0283463","77.6298629","HBR Layout, Bengaluru"
"Motherhood Women & Children Hospital","hospital","13.0102697","77.6525909","OMBR Layout, Banaswadi, Bengaluru"
"Santhamma Hospital","hospital","13.0866852","77.5535728","Abbasia Colony, Adityanagar, Vidyaranyapura, Bengaluru"
"Feran Hospital","hospital","13.0263661","77.6302142","HBR Layout, Kalyan Nagar, Bengaluru"
"Super Specialty Eye Hospital","hospital","13.0166883","77.6604049","Ramamurthy Nagar, Kuvempu Nagar, Bellandur, Bengaluru"
"Endocrine Speciality Centre","hospital","13.013761","77.648529","Balaji Layout, Subbaiahnapalya, Banaswadi, Bengaluru"
"Shree Sai Hospital","hospital","13.0885791","77.5455057","Vinayak Nagar, Vidyaranyapura, Bengaluru"
"Axis Hospital","hospital","13.065863","77.604213","Swami Vivekananda Layout, Amrutahalli, Bengaluru"
"Anjani Women's Day Care Hospital","hospital","13.0188119","77.647187","HRBR Layout, Banaswadi, Bengaluru"
"Eswar Women and Day Care Hospital","hospital","13.0658472","77.5992844","Talacauvery Layout, Sneha Nagar, Byatarayanapura, Bengaluru"
"CDEC Hospital","hospital","13.026989","77.6281742","HBR Layout, Bengaluru"
"Pranam Dental Hospital","hospital","13.029101","77.620568","Kadugondanahalli, Bengaluru"
"Milaan Hospital","hospital","13.0109537","77.6476418","Chikka Banaswadi, Banaswadi, Bengaluru"
"Cloudnine Hospital","hospital","13.020084","77.654053","Nanjappa Garden, Horamavu, Bengaluru"
"NDR Multi Speciality Hospital","hospital","13.1051735","77.6027864","Kogilu Main Road, Maruthi Nagar, Yelahanka, Bengaluru"
"Valens Hospitals","hospital","13.120977","77.6176084","Dwarka Nagar, Bengaluru"
"Bengalure Hospital","hospital","13.1039081","77.5754898","Yelahanka New Town, Bengaluru"
"Amruth Hospital","hospital","13.102578","77.627895","Agrahara Badavane, Bengaluru"
"Rangalakshmi Netralaya","hospital","13.098943","77.576716","Udaya Layout, Yelahanka New Town, Bengaluru"
"Saralaya Hospital","hospital","13.121743","77.629478","Saralaya Layout, Kattigenahalli, Bengaluru"
"Apurva Hospital","hospital","13.101335","77.59858","BB Road, Yelahanka, Bengaluru"
"Om Shakthi Hospital","hospital","13.1215701","77.6126077","Vinayak Nagar, Kattigenahalli, Bengaluru"
"Shadab Hospital","hospital","13.1025229","77.6278506","Kogilu Layout, Srinivaspur, Bengaluru"
"Rainbow Health Care","hospital","13.0997321","77.5760891","Yelahanka New Town, Bengaluru"
"Jayalakshmi Hospital","hospital","13.098909","77.596219","Gandhi Nagar, Yelahanka, Bengaluru"
"NDR Orthopaedic","hospital","13.10051","77.595603","Gandhi Nagar, Yelahanka, Bengaluru"
"Sri Arogya Hospital","hospital","13.1215659","77.6250507","Kattigenahalli, Bengaluru"
"Sapthagiri Hospital","hospital","13.1213668","77.6174817","Bagalur Main Road, Vinayak Nagar, Kattigenahalli, Bengaluru"
"Pavan Hospitals","hospital","13.0981485","77.596139","Gandhi Nagar, Yelahanka, Bengaluru"
"Kushi Hospital","hospital","13.0938081","77.5804166","Chikka Bommasandra, Yelahanka, Bengaluru"
"Varsha Hospital","hospital","13.1026581","77.6297932","Kogilu Layout, Srinivaspur, Bengaluru"
"Just Smiles","hospital","13.098668","77.5826843","Yelahanka New Town, Bengaluru"
"Lavis Hospital","hospital","12.925461","77.609021","Maruti Nagar, Brindavan Nagar, BTM Layout, Bengaluru"
"Sevakshetra Hospital","hospital","12.9215119","77.5724702","Banashankari, Bengaluru"
"Perfetual Help Hospital","hospital","12.9055752","77.5425258","Uttarahalli, Bengaluru"
"Shree Vaishnavi Heart Centre and Multi Speciality","hospital","12.9121632","77.6098276","Mahadeshwara Nagar, BTM Layout, Bengaluru"
"Marigold Hospital","hospital","12.9136262","77.6045369","BTM, Bengaluru"
"Bharathi Hospitals","hospital","12.9334096","77.5622345","Vidyapeeta Layout, Basavanagudi, Bengaluru"
"Devi Hospital","hospital","12.9239445","77.6198634","Sidharata Colony, Santhosapuram, Koramangala, Bengaluru"
"Devagiri Hospital","hospital","12.924153","77.565797","Banashankari, Bengaluru"
"Pothys Hospital","hospital","12.9159348","77.6034098","Bannerghatta Main Road, BTM, Bengaluru"
"Center for Liver Disease Hospital","hospital","12.916234","77.593019","J.P. Nagar, Bengaluru"
"Sudha Prevention Centre","hospital","12.9254569","77.5467101","Banashankari, Bengaluru"
"Sahasra Hospital","hospital","12.920651","77.5746118","Jayanagar, Bengaluru"
"Health India Hospital","hospital","12.9265183","77.6090995","Brindavan Nagar, S.G. Palya, Bengaluru"
"Shanti Hospital","hospital","12.9202202","77.5772991","Jayanagar, Bengaluru"
"Spurthy Hospital","hospital","12.923857","77.611355","Taverekere, Bengaluru"
"Apollo Cradle Maternity & Children's Hospital","hospital","12.916885","77.585258","TMC Layout, Jayanagar, Bengaluru"
"St. Martha's Hospital","hospital","12.906113","77.542548","Simhadri layout, Uttarahalli Hobli, Bengaluru"
"Chinmaya Hrudayalaya","hospital","12.9778121","77.6459447",""
"Government Hospital","hospital","13.0803204","77.5535057","Jamia Masjid Rd, Mohammed Sab Palya, Vidyaranyapura, Bengaluru, Karnataka"
"Bangalore Healthcare Center Pranav Ayurveda Hospital","hospital","13.0770012","77.5581038","OPP HDFC BANK,VIDYARANYAPURA Main Road, Opposite HDFC Bank, Vidyaranyapura Main Road Near NTI Ground, NTI Layout, Vidyaranyapura, Bengaluru, Karnataka"
"Government Hospital","hospital","13.070554","77.5388968","KVP Nagar, Jalahalli, Bengaluru, Karnataka"
"Kruthika Hospital","hospital","13.0650144","77.5041964","Bus Stop, Bus Stop, Bonemill, Hesarghatta Main Rd, Soundarya Layout, Bengaluru, Karnataka"
"Dr Saju George Kottakkal","hospital","13.0621628","77.5177637","342, 6th Cross, Brindavan Layout, Shetty Halli, Jalahalli West, Bengaluru, Karnataka"
"Fathima Hospital","hospital","13.0559513","77.5329456","144, Kammagondana Halli Main Rd, Kammagondahalli, Jalahalli, Bengaluru, Karnataka"
"Esi Dispensary","hospital","13.0439933","77.5065494","Vidya Nagar, Peenya, Bengaluru, Karnataka"
"Ashwini Hospital","hospital","13.0313399","77.5055985","Bengaluru, Nalagadderanahalli, Peenya, Bengaluru, Karnataka"
"Esi Hospital Peenya 1st Stage","hospital","13.0280728","77.5231858","KIADB Housing Complex, Peenya, Yeshwanthpur Suburb II Stage, KIADB Housing Complex, Peenya, Bengaluru, Karnataka"
"Nayanalaya Super Speciality Eye Care Centre","hospital","13.006795","77.571159","260/1, Abhiram, Near 17th Cross, Sampige Road, Malleswaram, Ranganathapura, Malleshwaram, Bengaluru, Karnataka"
"Srinidhi Health Centre","hospital","13.005821","77.5725746","17, 3rd, 15th-16th Cross, Temple Road, Malleshwaram Bengaluru, Vyalikaval, Kodandarampura, Malleshwaram, Bengaluru, Karnataka"
"Orthopedic & Eye Care Center","hospital","13.0054934","77.5719519","1/1, 15th Cross 1st Temple Road, Behind-Hotel Adigas Sampige, Malleshwaram, Vyalikaval, Kodandarampura, Malleshwaram, Bengaluru, Karnataka"
"ESI Hospital","hospital","13.004596","77.5540033","8/3, E Block, I Block, I Stage, Rajajinagar, E block, 2nd Stage, Rajajinagar, Bengaluru, Karnataka"
"Ramani Orthopaedic Hospital","hospital","13.0044307","77.5785238","5/19, 1st Main, Vyalikaval, Lower Palace Orchards, Guttahalli, Bengaluru, Karnataka"
"Atharva Ayurdhama Ayurvedic Hospital","hospital","13.004314","77.547749","233, 1st A Main Rd, West of Chord Road 2nd Stage, 2nd Stage, Mahalakshmipuram, Bengaluru, Karnataka"
"RICH CARE HOMEOPATHY","hospital","13.0015461","77.5721683","11th Cross Rd, HN Layout, Malleshwaram, Bengaluru, Karnataka"
"Poornayu Ayurveda Hospital","hospital","12.998238","77.551173","69/26, 19th Main, 19th Cross, Rajajinagar 1st Block, 1st Block, Rajajinagar, Bengaluru, Karnataka"
"Appllo Diagnostic","hospital","12.9981064","77.6008126","79/10, Nandi Durga Rd, Byadarahalli, Benson Town, Bengaluru, Karnataka"
"Supra Diagnostics Spine Care And Ortho Care Hospital","hospital","12.9969996","77.5730038","Sangeetha Apts, Malleshwaram, Bengaluru, Karnataka"
"K.C.General Hospital","hospital","12.9960244","77.5693714","89, 5th Cross Rd, Behind Police Station, Malleshwaram, Bengaluru, Karnataka"
"ESIC Model Hospital","hospital","12.9916924","77.5539007","620/A/1, 12th Main Rd, 2nd Block, Rajajinagar, Bengaluru, Karnataka"
"Government Hospital","hospital","12.9905045","77.5566355","172/A, 8th Main Rd, 2nd Block, Rajajinagar, Bengaluru, Karnataka"
"Esi Hospital Bangalore","hospital","12.9904985","77.5530924","3rd Block, Rajajinagar, Bengaluru, Karnataka"
"Government Hospital","hospital","12.9844963","77.5551801","20th Main Rd, 5 Block, 3rd Block, Rajajinagar, Bengaluru, Karnataka"
"Anupama Hospital","hospital","12.9831814","77.4787872","72/3 CIIQ, Magadi Main Road, Bel Layout, 2nd Phase, Near Karnataka Bank, Byadarahalli, Balaji Layout, Bedarahalli, Bengaluru, Karnataka"
"Sun Orthopaedic center","hospital","13.0332219","77.5549236",""
"St. Johns hospital Emergency ward","hospital","12.9305937","77.6186159",""
"Healing Hands Advanced Physiotherapy Clinic","hospital","12.9128623","77.5714903","4th Cross Road, Bangalore, 560078"
"Narayan Multispeciality clinic","hospital","12.9288444","77.5828703",""
"Adarsh Hospital","hospital","12.9208444","77.4847891",""
"clinic","hospital","12.9395279","77.586437",""
"Shree Manyata Hospitals","hospital","13.0544507","77.6316369",""
"Kidwai Cancer Institute Radiation Block","hospital","12.9355966","77.5971575",""
"Altius Hospital","hospital","13.0344639","77.6291947",""
"Maya Hospital","hospital","12.9365283","77.7046741",""
"Devi Eye Hospital","hospital","12.9556074","77.7216631",""
"Sahasra Hospital","hospital","12.9337751","77.7433234",""
"Cloudnine Hospital","hospital","12.8832909","77.5500857","Narayana Nagar, 1st Block, Doddakallasandra Village, Kanakapura Road, Bengaluru, 560062"
"My Dentist","hospital","12.9429852","77.5460604",""
"Siddanth Hospital","hospital","12.9563317","77.7305782",""
"Apollo Pharmacy","hospital","12.9263862","77.6766068",""
"Suraksha Hospital","hospital","13.048083","77.628791",""
"The Local Dentist","hospital","12.9094156","77.663997","HARLUR MAIN ROAD ,OPP.OZONE EVERGREEN SOCIETY GATE 1, Bengaluru, 560102"
"Janani Clinics","hospital","12.9918503","77.5437825","8th B Main Road, 3rd Stage, 2nd Block, Basaveshwaranagara, Basaveshwara Nagar, Bangalore, 560079"
"Lotus Hospital","hospital","12.9144825","77.6491563","24th Main Rd, Vanganahalli, 1st Sector, HSR Layout 5th Sector, Bengaluru,, bangalore, 560103"
"Ayaans Hospital","hospital","12.9782618","77.6435889",""
"NIMHANS Department Of Psychiatric and Neuro Rehabilitation","hospital","12.9400516","77.5954768",""
"Nimhans Mr-pet Center","hospital","12.9396498","77.5967825",""
"NIMHANS Physiotherapy Center","hospital","12.9402037","77.5954721",""
"Zymus Hospitals","hospital","12.8784742","77.5450234",""
"Cadabam's Hospitals","hospital","12.906071","77.5869281",""
"Fortis Hospital, Nagarbhavi","hospital","12.9596032","77.5112481","No 23, 80 Feet Road, Gurukrupa Layout"
"MEDSTAR Speciality Hospital","hospital","13.058128","77.5860405",""
"Span Health Center","hospital","12.9774449","77.6271297",""
"Smile Smart Dental & Implant Centre","hospital","12.8804891","77.6552588","Haralur Road, Electronic city post, 560100"
"Uvin Care Hospital","hospital","12.9778346","77.6282837",""
"Sai Sparsh Hospital","hospital","12.8933895","77.6368614",""
"Bengaluru City Hospital","hospital","12.9075935","77.5707809",""
"Aspire Hospital","hospital","12.9971683","77.6145878",""
"Dhee Hospital","hospital","12.8835095","77.550214","Kanakapura Road"
"Sai Thunga Hospitals","hospital","12.9240012","77.6481809",""
"Esha Hospital","hospital","13.098072","77.567378",""
"Chirag Global Hospital","hospital","12.9058817","77.6037517",""
"Manipal Hospital OPD","hospital","13.0624568","77.592227",""
"PMC Hospital","hospital","13.0065047","77.5545009",""
"New Varalakshmi Hospital","hospital","12.9988382","77.5550964",""
"Ashwini Hospital","hospital","13.0988482","77.5978974",""
"Apollo Cradle Children's Hospital","hospital","13.002768","77.5536287",""
"Motherhood Children's Hospital","hospital","13.0620051","77.5930638","Bellary Road"
"Abiramm Hospital","hospital","12.8728525","77.6515698",""
